golf_course_id,name,prefecture_id,created_at,updated_at,country_code,lon,lat
2157,阿寒カントリークラブ,1,1680528680,1680528680,jp,144.102844,43.111408
2162,旭川国際カントリークラブ,1,1680528680,1680528680,jp,142.598206,43.93428
2160,旭川ゴルフ倶楽部,1,1680528680,1680528680,jp,142.297379,43.772282
2123,旭川たかすゴルフクラブ,1,1680528680,1680528680,jp,142.376648,43.894104
2161,旭川メモリアルカントリークラブ,1,1680528680,1680528680,jp,142.29689,43.749584
2214,石狩平原カントリークラブ,1,1680528680,1680528680,jp,141.504852,43.253956
2106,エーヴランドゴルフクラブ,1,1680528680,1680528680,jp,140.825165,43.14975
2175,恵庭カントリー倶楽部,1,1680528680,1680528680,jp,141.503464,42.855152
2141,エバーグリーンゴルフ倶楽部,1,1680528680,1680528680,jp,141.912323,42.958294
2100,エムズゴルフクラブ,1,1680528680,1680528680,jp,141.760696,43.105133
2225,大沼国際カントリークラブ,1,1680528680,1680528680,jp,140.751602,42.010433
2224,大沼レイクゴルフクラブ,1,1680528680,1680528680,jp,140.640701,42.012554
2207,小樽カントリー倶楽部,1,1680528680,1680528680,jp,141.199005,43.150742
2221,帯広国際カントリークラブ,1,1680528680,1680528680,jp,143.279602,42.901443
2222,帯広白樺カントリークラブ,1,1680528680,1680528680,jp,143.327942,43.028931
2102,オホーツクカントリークラブ,1,1680528680,1680528680,jp,144.337967,43.949894
2167,温根湯国際カントリークラブ,1,1680528680,1680528680,jp,143.509445,43.777618
2177,桂ゴルフ倶楽部,1,1680528680,1680528680,jp,141.639694,42.746597
2210,上湧別リバーサイドゴルフ場,1,1680528680,1680528680,jp,143.552658,44.147938
2259,北見カントリークラブ,1,1680528680,1680528680,jp,143.854645,43.84864
2236,北見ハーブヒルゴルフクラブ,1,1680528680,1680528680,jp,143.949615,43.807285
2107,クラークカントリークラブ,1,1680528680,1680528680,jp,141.518829,42.919853
2110,グリーンスコーレカントリー倶楽部,1,1680528680,1680528680,jp,141.892319,43.800014
2112,グレート旭川カントリー倶楽部,1,1680528680,1680528680,jp,142.376648,43.894104
2113,グレート札幌カントリー倶楽部,1,1680528680,1680528680,jp,141.744583,42.916195
2159,コート旭川カントリークラブ,1,1680528680,1680528680,jp,142.518021,43.724026
2182,札樽ゴルフ倶楽部,1,1680528680,1680528680,jp,141.030273,43.131031
2184,札幌エルムカントリークラブ,1,1680528680,1680528680,jp,141.501938,42.913063
2128,札幌テイネゴルフ倶楽部,1,1680528680,1680528680,jp,141.210022,43.104588
2191,札幌ベイゴルフ倶楽部,1,1680528680,1680528680,jp,141.364258,43.218983
2267,札幌リージェントゴルフ倶楽部,1,1680528680,1680528680,jp,141.486023,42.930428
2116,サホロカントリークラブ,1,1680528680,1680528680,jp,142.838913,43.079758
2117,サロベツカントリークラブ,1,1680528680,1680528680,jp,141.801804,45.077263
2115,ザ・ノースカントリーゴルフクラブ,1,1680528680,1680528680,jp,141.594666,42.821472
2108,シェイクスピアカントリークラブ,1,1680528680,1680528680,jp,141.462418,43.272121
2203,鹿部カントリー倶楽部,1,1680528680,1680528680,jp,140.740372,42.063019
2202,士別同友会カントリークラブ,1,1680528680,1680528680,jp,142.406464,44.168037
2196,シャトレーゼカントリークラブ石狩,1,1680528680,1680528680,jp,144.847473,43.05196
2144,シャトレーゼカントリークラブマサリカップ,1,1680528680,1680528680,jp,144.847473,43.05196
2258,新奈井江カントリークラブ,1,1680528680,1680528680,jp,141.9039,43.429653
2111,スウェーデンヒルズゴルフ倶楽部,1,1680528680,1680528680,jp,141.458237,43.21796
2124,セント旭川ゴルフ倶楽部,1,1680528680,1680528680,jp,142.354446,43.843334
2226,大雪山カントリークラブ,1,1680528680,1680528680,jp,142.475906,43.665112
2227,滝のカントリークラブ,1,1680528680,1680528680,jp,141.352722,42.906437
2229,樽前カントリークラブ,1,1680528680,1680528680,jp,141.47493,42.62672
2189,ダイナスティゴルフクラブ有明,1,1680528680,1680528680,jp,141.41626,42.932892
2193,ダイナスティゴルフクラブ北広島,1,1680528680,1680528680,jp,141.45549,42.931763
2163,伊達カントリークラブ,1,1680528680,1680528680,jp,140.835434,42.521938
2125,チサンカントリークラブ銭函,1,1680528680,1680528680,jp,141.172058,43.129154
2215,千歳空港カントリークラブ,1,1680528680,1680528680,jp,141.696548,42.727325
2127,ツキサップゴルフクラブ,1,1680528680,1680528680,jp,141.408768,42.935471
2206,十勝カントリークラブ,1,1680528680,1680528680,jp,143.177536,42.948586
2260,名寄白樺カントリー倶楽部,1,1680528680,1680528680,jp,142.49617,44.322937
2139,ノースバレーカントリークラブ,1,1680528680,1680528680,jp,141.934738,45.420856
2234,登別カントリー倶楽部,1,1680528680,1680528680,jp,141.108551,42.485199
2246,函館シーサイドカントリークラブ,1,1680528680,1680528680,jp,140.87355,41.785847
2140,ハッピーバレーゴルフクラブ札幌,1,1680528680,1680528680,jp,141.536652,43.242645
2263,羊ヶ丘カントリークラブ,1,1680528680,1680528680,jp,141.385635,42.966469
2250,平取カントリー倶楽部,1,1680528680,1680528680,jp,142.106339,42.578773
2094,フォレスト旭川カントリークラブ,1,1680528680,1680528680,jp,142.331329,43.691463
2238,北海道ブルックスカントリークラブ,1,1680528680,1680528680,jp,141.669342,42.722103
2256,北海道リンクスカントリー倶楽部,1,1680528680,1680528680,jp,141.814774,43.255283
2212,真駒内カントリークラブ,1,1680528680,1680528680,jp,141.322098,42.917725
2217,増毛ゴルフ倶楽部,1,1680528680,1680528680,jp,141.630981,43.871273
2204,室蘭ゴルフ倶楽部,1,1680528680,1680528680,jp,140.954956,42.38467
2262,紋別カントリークラブ,1,1680528680,1680528680,jp,143.349289,44.317387
2230,稚内カントリークラブ,1,1680528680,1680528680,jp,141.834915,45.299824
1141,青森カントリー倶楽部,2,1680528680,1680528680,jp,140.747147,40.741753
1142,青森ロイヤルゴルフクラブ,2,1680528680,1680528680,jp,140.573792,40.493443
1150,下北スリーハンドレッドゴルフクラブ,2,1680528680,1680528680,jp,141.280304,40.992958
1146,東奥カントリークラブ,2,1680528680,1680528680,jp,140.875107,40.819813
1140,十和田国際カントリークラブ,2,1680528680,1680528680,jp,141.327789,40.632736
1138,夏泊ゴルフリンクス,2,1680528680,1680528680,jp,140.903809,40.98056
1147,八戸カントリークラブ,2,1680528680,1680528680,jp,141.596634,40.464165
1149,八甲田ビューカントリークラブ,2,1680528680,1680528680,jp,141.073318,40.612694
1135,びわの平ゴルフ倶楽部,2,1680528680,1680528680,jp,140.808365,40.511345
1136,みちのく国際ゴルフ倶楽部,2,1680528680,1680528680,jp,141.215393,40.653854
268,安比高原ゴルフクラブ,3,1680528680,1680528680,jp,140.978287,40.004765
269,一関カントリークラブ,3,1680528680,1680528680,jp,141.032562,38.911182
272,岩手沼宮内カントリークラブ,3,1680528680,1680528680,jp,141.177734,40.0144
275,栗駒ゴルフ倶楽部,3,1680528680,1680528680,jp,141.031586,39.167782
286,南部富士カントリークラブ,3,1680528680,1680528680,jp,141.125137,39.911411
276,ニュー軽米カントリークラブ,3,1680528680,1680528680,jp,141.469757,40.261238
287,八幡平カントリークラブ,3,1680528680,1680528680,jp,140.882217,39.611668
285,南岩手カントリークラブ,3,1680528680,1680528680,jp,141.190109,38.866306
273,宮古カントリークラブ,3,1680528680,1680528680,jp,141.958237,39.695877
281,盛岡カントリークラブ,3,1680528680,1680528680,jp,141.180038,39.703033
282,盛岡ハイランドカントリークラブ,3,1680528680,1680528680,jp,141.074768,39.67355
283,盛岡南ゴルフ倶楽部,3,1680528680,1680528680,jp,141.193695,39.477444
2303,ローズランドカントリークラブ,3,1680528680,1680528680,jp,141.177734,40.0144
435,泉国際ゴルフ倶楽部,4,1680528680,1680528680,jp,140.811874,38.355473
434,泉パークタウンゴルフ倶楽部,4,1680528680,1680528680,jp,140.842056,38.345318
404,おおさとゴルフ倶楽部,4,1680528680,1680528680,jp,140.979263,38.398987
411,グレースリッジカントリークラブ,4,1680528680,1680528680,jp,140.751755,38.202587
405,グレート仙台カントリー倶楽部,4,1680528680,1680528680,jp,140.71376,38.264965
432,仙台空港カントリークラブ,4,1680528680,1680528680,jp,140.829147,38.145924
414,仙台クラシックゴルフ倶楽部,4,1680528680,1680528680,jp,140.9155631,38.3856542
407,仙台ヒルズゴルフ倶楽部,4,1680528680,1680528680,jp,140.824844,38.301132
433,仙台南ゴルフ倶楽部,4,1680528680,1680528680,jp,140.703354,38.084415
440,富谷カントリークラブ,4,1680528680,1680528680,jp,140.9033032,38.4073998
416,花の杜ゴルフクラブ,4,1680528680,1680528680,jp,140.855347,38.465439
438,東蔵王ゴルフ倶楽部,4,1680528680,1680528680,jp,140.609756,38.204102
425,松島国際カントリークラブ,4,1680528680,1680528680,jp,141.006302,38.421173
419,宮城カントリークラブ,4,1680528680,1680528680,jp,141.171967,38.539642
420,宮城蔵王カントリークラブ,4,1680528680,1680528680,jp,140.590195,38.126991
421,宮城野ゴルフクラブ,4,1680528680,1680528680,jp,140.889236,37.905445
409,杜の公園ゴルフクラブ,4,1680528680,1680528680,jp,140.684265,38.172703
437,杜の都ゴルフ倶楽部,4,1680528680,1680528680,jp,140.913696,38.416039
444,利府ゴルフ倶楽部,4,1680528680,1680528680,jp,140.966507,38.356651
2362,秋田北空港クラシックゴルフ倶楽部,5,1680528680,1680528680,jp,140.381363,40.133564
1031,秋田太平山カントリークラブ,5,1680528680,1680528680,jp,140.159393,39.700222
1032,秋田椿台カントリークラブ,5,1680528680,1680528680,jp,140.181107,39.62706
1028,羽後カントリー倶楽部,5,1680528680,1680528680,jp,140.429398,39.358028
1033,大館カントリークラブ,5,1680528680,1680528680,jp,140.6010471,40.2154655
1035,大野台ゴルフクラブ,5,1680528680,1680528680,jp,140.336212,40.220131
1036,男鹿ゴルフクラブ,5,1680528680,1680528680,jp,139.871918,39.944061
1026,ノースハンプトンゴルフ倶楽部,5,1680528680,1680528680,jp,140.293106,39.671055
1038,能代カントリークラブ,5,1680528680,1680528680,jp,140.038513,40.284325
1037,南秋田カントリークラブ,5,1680528680,1680528680,jp,140.111618,39.819218
1027,ロイヤルセンチュリーゴルフ倶楽部,5,1680528680,1680528680,jp,140.3564,39.670597
860,さくらんぼカントリークラブ,6,1680528680,1680528680,jp,140.373383,38.510536
872,蔵王カントリークラブ,6,1680528680,1680528680,jp,140.31485,38.174347
863,庄内ゴルフ倶楽部,6,1680528680,1680528680,jp,139.975952,38.791195
871,新庄アーデンゴルフ倶楽部,6,1680528680,1680528680,jp,140.284332,38.763737
875,天童カントリークラブ,6,1680528680,1680528680,jp,140.429565,38.389481
862,ニューブラッサムガーデンクラブ,6,1680528680,1680528680,jp,140.274445,38.433216
867,山形ゴルフ倶楽部,6,1680528680,1680528680,jp,140.208282,38.289837
868,山形南カントリークラブ,6,1680528680,1680528680,jp,140.031052,38.002377
876,湯の浜カントリークラブ,6,1680528680,1680528680,jp,139.764343,38.779484
1909,会津磐梯カントリークラブ,7,1680528680,1680528680,jp,139.989777,37.518967
1913,五浦庭園カントリークラブ,7,1680528680,1680528680,jp,140.75705,36.876595
1905,宇津峰カントリークラブ,7,1680528680,1680528680,jp,140.42688,37.287136
1921,大玉カントリークラブ,7,1680528680,1680528680,jp,140.375488,37.535126
1916,小名浜カントリー倶楽部,7,1680528680,1680528680,jp,140.940353,36.973965
1893,グランディ那須白河ゴルフクラブ,7,1680528680,1680528680,jp,140.164322,37.14769
1912,郡山熱海カントリークラブ,7,1680528680,1680528680,jp,140.272171,37.507568
1911,郡山ゴルフ倶楽部,7,1680528680,1680528680,jp,140.2733,37.378284
1906,塩屋崎カントリークラブ,7,1680528680,1680528680,jp,140.958542,36.999889
1930,白河高原カントリークラブ,7,1680528680,1680528680,jp,140.076736,37.15831
1929,白河メドウゴルフ倶楽部,7,1680528680,1680528680,jp,140.063171,37.292126
1923,棚倉田舎倶楽部,7,1680528680,1680528680,jp,140.405548,37.039936
1924,猫魔ホテル猪苗代ゴルフコース,7,1680528680,1680528680,jp,140.191788,37.677383
1897,パーシモンカントリークラブ,7,1680528680,1680528680,jp,140.660873,37.797703
1939,矢吹ゴルフ倶楽部,7,1680528680,1680528680,jp,140.329422,37.172314
1927,湯本スプリングスカントリークラブ,7,1680528680,1680528680,jp,140.7397,36.98103
162,浅見ゴルフ倶楽部,8,1680528680,1680528680,jp,140.323257,36.385979
192,アスレチックガーデンゴルフ倶楽部,8,1680528680,1680528680,jp,140.353806,35.939198
114,阿見ゴルフクラブ,8,1680528680,1680528680,jp,140.238113,36.001289
2296,イーグルポイントゴルフクラブ,8,1680528680,1680528680,jp,140.194763,35.982681
116,茨城ゴルフ倶楽部,8,1680528680,1680528680,jp,140.053116,36.002213
118,茨城パシフィックカントリー倶楽部,8,1680528680,1680528680,jp,140.757858,36.821423
119,茨城ロイヤルカントリー倶楽部,8,1680528680,1680528680,jp,140.505066,36.558266
127,岩瀬桜川カントリークラブ,8,1680528680,1680528680,jp,140.118774,36.395069
76,うぐいすの森ゴルフクラブ水戸,8,1680528680,1680528680,jp,140.227158,36.452587
82,オールドオーチャードゴルフクラブ,8,1680528680,1680528680,jp,140.426941,36.249966
164,大洗ゴルフ倶楽部,8,1680528680,1680528680,jp,140.588028,36.3241
165,大利根カントリークラブ,8,1680528680,1680528680,jp,139.898972,36.028439
142,鹿島の杜カントリー倶楽部,8,1680528680,1680528680,jp,140.582611,36.053875
194,霞台カントリークラブ,8,1680528680,1680528680,jp,140.381134,35.967289
135,桂ヶ丘カントリークラブ,8,1680528680,1680528680,jp,140.316162,36.501076
132,金砂郷カントリークラブ,8,1680528680,1680528680,jp,140.447586,36.5798
83,カバヤゴルフクラブ,8,1680528680,1680528680,jp,140.301819,36.581772
85,カントリークラブ・ザ・レイクス,8,1680528680,1680528680,jp,140.256866,36.353516
133,金乃台カントリークラブ,8,1680528680,1680528680,jp,140.161163,35.97126
86,グランドスラムカントリークラブ,8,1680528680,1680528680,jp,140.553238,36.555683
87,ゴルフ倶楽部セブンレイクス,8,1680528680,1680528680,jp,140.352081,36.597775
140,桜ゴルフ倶楽部,8,1680528680,1680528680,jp,140.377213,35.975716
141,桜の宮ゴルフ倶楽部,8,1680528680,1680528680,jp,140.320206,36.379044
2319,猿島カントリー倶楽部,8,1680528680,1680528680,jp,139.856323,36.124424
94,サミットゴルフクラブ,8,1680528680,1680528680,jp,140.227509,36.248272
88,ザ・インペリアルカントリークラブ,8,1680528680,1680528680,jp,140.329605,35.991508
89,ザ・オーシャンゴルフクラブ,8,1680528680,1680528680,jp,140.647217,36.64901
91,ザ・ロイヤルゴルフクラブ,8,1680528680,1680528680,jp,140.576126,36.097916
143,宍戸ヒルズカントリークラブ,8,1680528680,1680528680,jp,140.280212,36.325298
180,白帆カントリークラブ,8,1680528680,1680528680,jp,140.455719,36.131203
84,城里ゴルフ倶楽部,8,1680528680,1680528680,jp,140.247314,36.460289
75,ジェイゴルフ霞ヶ浦,8,1680528680,1680528680,jp,140.531845,35.994991
149,常総カントリー倶楽部,8,1680528680,1680528680,jp,139.920303,35.985371
150,常陽カントリー倶楽部,8,1680528680,1680528680,jp,140.054977,36.007008
125,スターツ笠間ゴルフ倶楽部,8,1680528680,1680528680,jp,140.325104,36.412495
96,スプリングフィルズゴルフクラブ,8,1680528680,1680528680,jp,140.024963,36.371624
139,高萩カントリークラブ,8,1680528680,1680528680,jp,140.566727,36.791306
167,筑波カントリークラブ,8,1680528680,1680528680,jp,140.062729,35.994286
168,筑波学園ゴルフ倶楽部,8,1680528680,1680528680,jp,140.074036,36.372871
104,つくばねカントリークラブ,8,1680528680,1680528680,jp,140.116028,36.196182
172,土浦カントリー倶楽部,8,1680528680,1680528680,jp,140.355713,35.954979
174,取手桜が丘ゴルフクラブ,8,1680528680,1680528680,jp,140.122681,35.900658
175,那珂カントリー倶楽部,8,1680528680,1680528680,jp,140.391205,36.540897
106,ニッソーカントリークラブ,8,1680528680,1680528680,jp,140.235474,35.866421
187,ノースショアカントリークラブ,8,1680528680,1680528680,jp,140.522903,36.082176
173,東筑波カントリークラブ,8,1680528680,1680528680,jp,140.214539,36.23674
178,日立ゴルフクラブ,8,1680528680,1680528680,jp,140.654617,36.614445
183,富士カントリー笠間倶楽部,8,1680528680,1680528680,jp,140.337311,36.421104
185,扶桑カントリー倶楽部,8,1680528680,1680528680,jp,140.307327,36.390137
107,フレンドシップカントリークラブ,8,1680528680,1680528680,jp,139.908478,36.132652
152,マナゴルフクラブ,8,1680528680,1680528680,jp,140.342438,36.585342
155,水戸・ゴルフ・クラブ,8,1680528680,1680528680,jp,140.375671,36.401192
158,水戸レイクスカントリークラブ,8,1680528680,1680528680,jp,140.347488,36.482235
181,美浦ゴルフ倶楽部,8,1680528680,1680528680,jp,140.347672,36.011559
191,龍ヶ崎カントリー倶楽部,8,1680528680,1680528680,jp,140.216583,35.944225
109,ワンウェイゴルフクラブ,8,1680528680,1680528680,jp,140.263596,36.08646
1722,足利城ゴルフ倶楽部,9,1680528680,1680528680,jp,139.465576,36.383568
1637,アローエースゴルフクラブ,9,1680528680,1680528680,jp,139.968277,36.792934
1638,イーストウッドカントリークラブ,9,1680528680,1680528680,jp,139.842209,36.688976
1680,宇都宮カンツリークラブ,9,1680528680,1680528680,jp,139.862915,36.599861
1728,大日向カントリー倶楽部,9,1680528680,1680528680,jp,139.98587,36.757423
1729,大平台カントリークラブ,9,1680528680,1680528680,jp,139.676605,36.367165
1709,小山ゴルフクラブ,9,1680528680,1680528680,jp,139.81543,36.341335
1708,鹿沼カントリー倶楽部,9,1680528680,1680528680,jp,139.778625,36.502605
1707,鹿沼72カントリークラブ,9,1680528680,1680528680,jp,139.734451,36.51186
1645,鹿沼プレミアゴルフ倶楽部,9,1680528680,1680528680,jp,139.665573,36.588573
1683,烏山城カントリークラブ,9,1680528680,1680528680,jp,140.141937,36.710358
1692,関東国際カントリークラブ,9,1680528680,1680528680,jp,140.137253,36.542599
1694,喜連川カントリー倶楽部,9,1680528680,1680528680,jp,140.056564,36.761868
1699,広陵カントリークラブ,9,1680528680,1680528680,jp,139.731018,36.576111
1641,ゴールド佐野カントリークラブ,9,1680528680,1680528680,jp,139.559601,36.387974
1666,ゴールド栃木プレジデントカントリークラブ,9,1680528680,1680528680,jp,139.679398,36.419006
1687,塩原カントリークラブ,9,1680528680,1680528680,jp,139.926331,36.966259
1738,東雲ゴルフクラブ,9,1680528680,1680528680,jp,140.054306,36.64962
1710,城山カントリー倶楽部,9,1680528680,1680528680,jp,139.376999,36.396351
1714,杉ノ郷カントリークラブ,9,1680528680,1680528680,jp,139.788071,36.733868
1719,千成ゴルフクラブ,9,1680528680,1680528680,jp,140.040009,36.795731
1730,鷹ゴルフ倶楽部,9,1680528680,1680528680,jp,139.69281,36.494244
1733,都賀カンツリー倶楽部,9,1680528680,1680528680,jp,139.683838,36.447601
1739,東松苑ゴルフ倶楽部,9,1680528680,1680528680,jp,139.528198,36.319859
1746,栃木ヶ丘ゴルフ倶楽部,9,1680528680,1680528680,jp,139.71463,36.418446
2337,トムソンカントリー倶楽部,9,1680528680,1680528680,jp,139.726517,36.4772
1743,那須伊王野カントリークラブ,9,1680528680,1680528680,jp,140.166519,36.962791
1751,那須カントリークラブ,9,1680528680,1680528680,jp,140.095383,36.985252
1750,那須ゴルフ倶楽部,9,1680528680,1680528680,jp,139.992386,37.106594
1759,南摩城カントリークラブ,9,1680528680,1680528680,jp,139.716797,36.526054
1716,西那須野カントリー倶楽部,9,1680528680,1680528680,jp,139.935257,36.95192
1761,日光カンツリー倶楽部,9,1680528680,1680528680,jp,139.666473,36.740898
1766,芳賀カントリークラブ,9,1680528680,1680528680,jp,140.106155,36.520306
1736,東ノ宮カントリークラブ,9,1680528680,1680528680,jp,140.165131,36.502663
1668,ホウライカントリー倶楽部,9,1680528680,1680528680,jp,139.930206,36.946823
1691,皆川城カントリークラブ,9,1680528680,1680528680,jp,139.678055,36.402725
1684,南栃木ゴルフ倶楽部,9,1680528680,1680528680,jp,139.549652,36.528297
1672,メイフラワーゴルフクラブ,9,1680528680,1680528680,jp,139.908798,36.881435
1767,矢板カントリークラブ,9,1680528680,1680528680,jp,139.891983,36.866791
1682,ラインヒルゴルフクラブ,9,1680528680,1680528680,jp,139.746475,36.653381
1676,レイクランドカントリークラブ,9,1680528680,1680528680,jp,139.787811,36.611855
1718,赤城カントリー倶楽部,10,1680528680,1680528680,jp,139.237,36.462708
573,赤城国際カントリークラブ,10,1680528680,1680528680,jp,139.12822,36.517929
572,赤城ゴルフ倶楽部,10,1680528680,1680528680,jp,139.07193,36.536804
539,伊香保カントリークラブ,10,1680528680,1680528680,jp,138.938751,36.498146
542,伊香保国際カンツリークラブ,10,1680528680,1680528680,jp,138.947357,36.510754
577,太田双葉カントリークラブ,10,1680528680,1680528680,jp,139.334747,36.357552
563,小幡郷ゴルフ倶楽部,10,1680528680,1680528680,jp,138.923386,36.219753
554,軽井沢高原ゴルフ倶楽部,10,1680528680,1680528680,jp,138.569366,36.457584
547,関越ハイランドゴルフクラブ,10,1680528680,1680528680,jp,138.964783,36.232155
545,甘楽カントリークラブ,10,1680528680,1680528680,jp,138.9422,36.227341
552,桐生カントリークラブ,10,1680528680,1680528680,jp,139.226212,36.489529
575,草津カントリークラブ,10,1680528680,1680528680,jp,138.577484,36.572674
522,グリーンパークカントリークラブ,10,1680528680,1680528680,jp,138.997452,36.198326
1689,下秋間カントリークラブ,10,1680528680,1680528680,jp,138.894897,36.354954
543,下仁田カントリークラブ,10,1680528680,1680528680,jp,138.815689,36.210705
586,白水ゴルフ倶楽部,10,1680528680,1680528680,jp,138.983444,36.553909
568,新玉村ゴルフ場,10,1680528680,1680528680,jp,139.149185,36.282925
565,上武カントリークラブ,10,1680528680,1680528680,jp,139.048309,36.185398
559,高山ゴルフ倶楽部,10,1680528680,1680528680,jp,138.959335,36.621689
528,ツインレイクスカントリー倶楽部,10,1680528680,1680528680,jp,139.021957,36.19257
590,富岡ゴルフ倶楽部,10,1680528680,1680528680,jp,138.828873,36.258961
562,初穂カントリークラブ,10,1680528680,1680528680,jp,139.122589,36.673115
574,前橋ゴルフ場,10,1680528680,1680528680,jp,139.040482,36.424534
596,緑野カントリークラブ,10,1680528680,1680528680,jp,138.997452,36.198326
595,妙義カントリークラブ,10,1680528680,1680528680,jp,138.772385,36.266361
556,メイレイクヒルズカントリークラブ,10,1680528680,1680528680,jp,139.042831,36.202103
527,ヴィレッジ東軽井沢ゴルフクラブ,10,1680528680,1680528680,jp,138.688232,36.376087
745,石坂ゴルフ倶楽部,11,1680528680,1680528680,jp,139.364456,35.997429
766,入間カントリー倶楽部,11,1680528680,1680528680,jp,139.317917,35.966915
715,浦和ゴルフ倶楽部,11,1680528680,1680528680,jp,139.616821,35.845989
707,おおむらさきゴルフ倶楽部,11,1680528680,1680528680,jp,139.341202,36.06493
719,岡部チサンカントリークラブ,11,1680528680,1680528680,jp,139.217072,36.192982
741,小川カントリークラブ,11,1680528680,1680528680,jp,139.278351,36.061134
716,越生ゴルフクラブ,11,1680528680,1680528680,jp,139.293594,35.997177
720,霞ヶ関カンツリー倶楽部,11,1680528680,1680528680,jp,139.404709,35.89909
746,川越カントリークラブ,11,1680528680,1680528680,jp,139.388443,36.089096
747,川越グリーンクロス,11,1680528680,1680528680,jp,139.543106,35.908768
783,北武蔵カントリークラブ,11,1680528680,1680528680,jp,139.105225,36.180191
743,清澄ゴルフ倶楽部,11,1680528680,1680528680,jp,139.348938,36.006351
722,久邇カントリークラブ,11,1680528680,1680528680,jp,139.344604,35.870941
725,熊谷ゴルフクラブ,11,1680528680,1680528680,jp,139.358322,36.14653
734,鴻巣カントリークラブ,11,1680528680,1680528680,jp,139.527908,36.098099
740,こだま神川カントリークラブ,11,1680528680,1680528680,jp,139.071686,36.171764
739,児玉カントリー倶楽部,11,1680528680,1680528680,jp,139.131531,36.16806
708,こだまゴルフクラブ,11,1680528680,1680528680,jp,139.145233,36.19883
733,高麗川カントリークラブ,11,1680528680,1680528680,jp,139.315598,35.912052
738,埼玉国際ゴルフ倶楽部,11,1680528680,1680528680,jp,139.065536,36.146473
735,さいたまゴルフクラブ,11,1680528680,1680528680,jp,139.309143,35.917892
778,さいたま梨花カントリークラブ,11,1680528680,1680528680,jp,139.235703,35.997231
709,彩の森カントリークラブ,11,1680528680,1680528680,jp,139.063156,36.033253
723,狭山ゴルフ・クラブ,11,1680528680,1680528680,jp,139.349228,35.805614
785,ザ ナショナルカントリー倶楽部 埼玉,11,1680528680,1680528680,jp,139.08783,36.060669
742,森林公園ゴルフ倶楽部,11,1680528680,1680528680,jp,139.248657,36.095707
732,高坂カントリークラブ,11,1680528680,1680528680,jp,139.386047,36.004829
731,高根カントリー倶楽部,11,1680528680,1680528680,jp,139.343338,36.092915
724,玉川カントリークラブ,11,1680528680,1680528680,jp,139.29158,36.018078
753,秩父国際カントリークラブ,11,1680528680,1680528680,jp,139.136124,36.058968
759,東京ゴルフ倶楽部,11,1680528680,1680528680,jp,139.405548,35.896309
755,長瀞カントリークラブ,11,1680528680,1680528680,jp,139.144287,36.120689
765,日本カントリークラブ,11,1680528680,1680528680,jp,139.302246,35.9828
767,鳩山カントリークラブ,11,1680528680,1680528680,jp,139.344177,35.994446
768,飯能くすの樹カントリー倶楽部,11,1680528680,1680528680,jp,139.268799,35.860741
769,飯能グリーンカントリークラブ,11,1680528680,1680528680,jp,139.271439,35.87207
770,飯能ゴルフクラブ,11,1680528680,1680528680,jp,139.359039,35.861889
760,東松山カントリークラブ,11,1680528680,1680528680,jp,139.382477,36.068176
772,美里ゴルフ倶楽部,11,1680528680,1680528680,jp,139.175308,36.150517
718,武蔵の杜カントリークラブ,11,1680528680,1680528680,jp,139.271057,35.978134
779,武蔵松山カントリークラブ,11,1680528680,1680528680,jp,139.347305,36.016659
713,ユニオンエースゴルフクラブ,11,1680528680,1680528680,jp,139.025421,36.037281
721,寄居カントリークラブ,11,1680528680,1680528680,jp,139.242905,36.09338
784,嵐山カントリークラブ,11,1680528680,1680528680,jp,139.31987,36.019672
714,リバーサイドフェニックスゴルフクラブ,11,1680528680,1680528680,jp,139.546494,35.947956
1275,アクアラインゴルフクラブ,12,1680528680,1680528680,jp,140.086426,35.37513
2453,麻倉ゴルフ倶楽部,12,1680528680,1680528680,jp,140.227173,35.638294
1323,姉ヶ崎カントリー倶楽部,12,1680528680,1680528680,jp,140.082291,35.436615
1301,我孫子ゴルフ倶楽部,12,1680528680,1680528680,jp,140.054367,35.866077
1298,一の宮カントリー倶楽部,12,1680528680,1680528680,jp,140.365082,35.345119
1326,市原京急カントリークラブ,12,1680528680,1680528680,jp,140.130859,35.424301
1270,オーク・ヒルズカントリークラブ,12,1680528680,1680528680,jp,140.487961,35.807674
1272,かずさカントリークラブ,12,1680528680,1680528680,jp,140.168427,35.325928
1337,上総富士ゴルフクラブ,12,1680528680,1680528680,jp,140.034744,35.240906
1336,上総モナークカントリークラブ,12,1680528680,1680528680,jp,140.095123,35.24839
1315,香取カントリークラブ,12,1680528680,1680528680,jp,140.538666,35.859505
1286,鹿野山ゴルフ倶楽部,12,1680528680,1680528680,jp,139.960587,35.25251
1303,鎌ヶ谷カントリークラブ,12,1680528680,1680528680,jp,139.977646,35.771263
1273,カメリアヒルズカントリークラブ,12,1680528680,1680528680,jp,140.019699,35.361393
1304,鴨川カントリークラブ,12,1680528680,1680528680,jp,140.106049,35.148556
1299,加茂ゴルフ倶楽部,12,1680528680,1680528680,jp,140.184464,35.29808
1274,カレドニアン・ゴルフクラブ,12,1680528680,1680528680,jp,140.444107,35.677185
1408,木更津ゴルフクラブ,12,1680528680,1680528680,jp,140.006668,35.350346
1316,君津香木原カントリークラブ,12,1680528680,1680528680,jp,140.052063,35.171204
1310,京カントリークラブ,12,1680528680,1680528680,jp,140.411285,35.722961
1277,キングフィールズゴルフクラブ,12,1680528680,1680528680,jp,140.17894,35.438515
1279,グレンオークスカントリークラブ,12,1680528680,1680528680,jp,140.477493,35.792011
1311,京葉カントリー倶楽部,12,1680528680,1680528680,jp,140.192612,35.591488
1313,源氏山ゴルフクラブ,12,1680528680,1680528680,jp,140.171371,35.449291
1280,コスモクラシッククラブ,12,1680528680,1680528680,jp,139.957581,35.1073
1282,ゴルフ倶楽部成田ハイツリー,12,1680528680,1680528680,jp,140.47229,35.778809
1319,佐倉カントリー倶楽部,12,1680528680,1680528680,jp,140.235611,35.727566
1318,佐原カントリークラブ,12,1680528680,1680528680,jp,140.550232,35.872711
1285,ザ・カントリークラブ・ジャパン,12,1680528680,1680528680,jp,140.102509,35.332413
1358,ザ ナショナルカントリー倶楽部 千葉,12,1680528680,1680528680,jp,140.099319,35.402439
2344,芝山ゴルフ倶楽部,12,1680528680,1680528680,jp,140.423584,35.706795
2405,新君津ベルグリーンカントリー倶楽部,12,1680528680,1680528680,jp,140.017227,35.253895
1288,スカイウェイカントリークラブ,12,1680528680,1680528680,jp,140.351837,35.833527
1369,大栄カントリー倶楽部,12,1680528680,1680528680,jp,140.438156,35.820568
1374,鷹之台カンツリー倶楽部,12,1680528680,1680528680,jp,140.112854,35.708618
1305,館山カントリークラブ,12,1680528680,1680528680,jp,139.810501,34.952084
1355,千葉夷隅ゴルフクラブ,12,1680528680,1680528680,jp,140.186768,35.262661
1356,千葉国際カントリークラブ,12,1680528680,1680528680,jp,140.219086,35.471695
1351,千葉桜の里ゴルフクラブ,12,1680528680,1680528680,jp,140.575897,35.817142
1357,千葉新日本ゴルフ倶楽部,12,1680528680,1680528680,jp,140.17189,35.423599
1353,千葉よみうりカントリークラブ,12,1680528680,1680528680,jp,140.147125,35.376186
1376,長太郎カントリークラブ,12,1680528680,1680528680,jp,140.413773,35.859669
1377,長南カントリークラブ,12,1680528680,1680528680,jp,140.21431,35.399986
1379,鶴舞カントリー倶楽部,12,1680528680,1680528680,jp,140.178986,35.368572
1291,トーヨーカントリークラブ,12,1680528680,1680528680,jp,140.240158,35.333202
257,東京クラシッククラブ,12,1680528680,1680528680,jp,140.106598,35.60738
1384,東京湾カントリークラブ,12,1680528680,1680528680,jp,140.010239,35.438847
1399,富里ゴルフ倶楽部,12,1680528680,1680528680,jp,140.43335,35.730347
1375,中山カントリークラブ,12,1680528680,1680528680,jp,140.080887,35.751461
1344,成田ゴルフ倶楽部,12,1680528680,1680528680,jp,140.370087,35.826122
1281,成田の森カントリークラブ,12,1680528680,1680528680,jp,140.524857,35.791325
1345,成田東カントリークラブ,12,1680528680,1680528680,jp,140.514191,35.786617
1284,成田ヒルズカントリークラブ,12,1680528680,1680528680,jp,140.276886,35.833435
1389,南総カントリークラブ,12,1680528680,1680528680,jp,140.094147,35.414757
1269,南総ヒルズカントリークラブ,12,1680528680,1680528680,jp,139.951263,35.234219
1392,白鳳カントリー倶楽部,12,1680528680,1680528680,jp,140.327271,35.842625
1300,花生カントリークラブ,12,1680528680,1680528680,jp,140.232376,35.209297
1396,浜野ゴルフクラブ,12,1680528680,1680528680,jp,140.204254,35.505768
1381,東我孫子カントリークラブ,12,1680528680,1680528680,jp,140.053238,35.884811
1386,東千葉カントリークラブ,12,1680528680,1680528680,jp,140.330536,35.584236
1400,平川カントリークラブ,12,1680528680,1680528680,jp,140.253174,35.553085
1387,藤ヶ谷カントリークラブ,12,1680528680,1680528680,jp,140.028122,35.829498
1360,船橋カントリー倶楽部,12,1680528680,1680528680,jp,140.093918,35.799515
1405,本千葉カントリークラブ,12,1680528680,1680528680,jp,140.175827,35.538212
1289,房州カントリークラブ,12,1680528680,1680528680,jp,139.844879,34.949448
1388,マグレガーカントリークラブ,12,1680528680,1680528680,jp,140.245407,35.285179
1406,万木城カントリークラブ,12,1680528680,1680528680,jp,140.281296,35.298191
1380,南市原ゴルフクラブ,12,1680528680,1680528680,jp,140.155075,35.299881
1390,南茂原カントリークラブ,12,1680528680,1680528680,jp,140.274353,35.361317
1340,森永高滝カントリー倶楽部,12,1680528680,1680528680,jp,140.168427,35.325928
1320,山田ゴルフ倶楽部,12,1680528680,1680528680,jp,140.420593,35.630337
1394,八幡カントリークラブ,12,1680528680,1680528680,jp,140.085388,35.43119
1401,米原ゴルフ倶楽部,12,1680528680,1680528680,jp,140.211609,35.316471
1606,赤羽ゴルフ倶楽部,13,1680528680,1680528680,jp,139.695084,35.794716
1605,青梅ゴルフ倶楽部,13,1680528680,1680528680,jp,139.273041,35.802288
1603,小金井カントリー倶楽部,13,1680528680,1680528680,jp,139.504898,35.716042
1601,桜ヶ丘カントリークラブ,13,1680528680,1680528680,jp,139.462799,35.642326
1604,昭和の森ゴルフコース,13,1680528680,1680528680,jp,139.373352,35.724125
1607,相武カントリー倶楽部,13,1680528680,1680528680,jp,139.313599,35.622814
1618,多摩カントリークラブ,13,1680528680,1680528680,jp,139.481049,35.633221
1611,東京五日市カントリー倶楽部,13,1680528680,1680528680,jp,139.250336,35.718258
1612,東京国際ゴルフ倶楽部,13,1680528680,1680528680,jp,139.416122,35.611618
1610,東京よみうりカントリークラブ,13,1680528680,1680528680,jp,139.491364,35.620903
1614,八王子カントリークラブ,13,1680528680,1680528680,jp,139.291367,35.698406
1615,府中カントリークラブ,13,1680528680,1680528680,jp,139.40506,35.620403
1616,武蔵野ゴルフクラブ,13,1680528680,1680528680,jp,139.30307,35.700813
1088,伊勢原カントリークラブ,14,1680528680,1680528680,jp,139.262436,35.410427
1089,磯子カンツリークラブ,14,1680528680,1680528680,jp,139.603958,35.372299
1097,小田原城カントリー倶楽部,14,1680528680,1680528680,jp,139.107697,35.196037
1098,小田原湯本カントリークラブ,14,1680528680,1680528680,jp,139.111267,35.228031
1100,神奈川カントリークラブ,14,1680528680,1680528680,jp,139.373337,35.571388
1091,鎌倉カントリークラブ,14,1680528680,1680528680,jp,139.570465,35.340115
1102,清川カントリークラブ,14,1680528680,1680528680,jp,139.262299,35.484276
1103,相模カンツリー倶楽部,14,1680528680,1680528680,jp,139.436325,35.508053
1105,相模湖カントリークラブ,14,1680528680,1680528680,jp,139.164047,35.571507
1106,相模野カントリー倶楽部,14,1680528680,1680528680,jp,139.315002,35.55777
1104,相模原ゴルフクラブ,14,1680528680,1680528680,jp,139.402054,35.547569
1123,湘南カントリークラブ,14,1680528680,1680528680,jp,139.434097,35.35854
1099,湘南シーサイドカントリー倶楽部,14,1680528680,1680528680,jp,139.3741,35.324383
1108,大相模カントリークラブ,14,1680528680,1680528680,jp,139.305618,35.544628
1128,大箱根カントリークラブ,14,1680528680,1680528680,jp,138.996765,35.25642
1085,チェックメイトカントリークラブ,14,1680528680,1680528680,jp,139.139389,35.348171
1111,津久井湖ゴルフ倶楽部,14,1680528680,1680528680,jp,139.236008,35.585705
1112,東京カントリー倶楽部,14,1680528680,1680528680,jp,139.242142,35.400768
1113,東名厚木カントリー倶楽部,14,1680528680,1680528680,jp,139.288818,35.541016
1093,戸塚カントリー倶楽部,14,1680528680,1680528680,jp,139.536438,35.446205
1110,長竹カントリークラブ,14,1680528680,1680528680,jp,139.373337,35.571388
1115,箱根カントリー倶楽部,14,1680528680,1680528680,jp,138.996765,35.25642
1116,平塚富士見カントリークラブ,14,1680528680,1680528680,jp,139.246078,35.330921
1134,芙蓉カントリー倶楽部,14,1680528680,1680528680,jp,139.451645,35.350666
1129,程ヶ谷カントリー倶楽部,14,1680528680,1680528680,jp,139.498306,35.488121
1117,本厚木カンツリークラブ,14,1680528680,1680528680,jp,139.335236,35.461697
1114,湯河原カンツリー倶楽部,14,1680528680,1680528680,jp,139.11142,35.173569
1090,横浜カントリークラブ,14,1680528680,1680528680,jp,139.549286,35.446053
1086,レイクウッドゴルフクラブ,14,1680528680,1680528680,jp,139.261871,35.332481
1087,レインボーカントリー倶楽部,14,1680528680,1680528680,jp,139.202774,35.355656
943,上野原カントリークラブ,15,1680528680,1680528680,jp,139.118118,35.659405
927,丘の公園清里ゴルフコース,15,1680528680,1680528680,jp,138.435074,35.923233
915,オリムピックカントリークラブ,15,1680528680,1680528680,jp,139.037308,35.648525
929,甲斐駒カントリークラブ,15,1680528680,1680528680,jp,138.36235,35.769756
930,甲斐ヒルズカントリー倶楽部,15,1680528680,1680528680,jp,138.423615,35.776665
933,春日居ゴルフ倶楽部,15,1680528680,1680528680,jp,138.634445,35.681576
926,河口湖カントリークラブ,15,1680528680,1680528680,jp,138.752167,35.467972
938,北の杜カントリー倶楽部,15,1680528680,1680528680,jp,138.33699,35.828979
931,甲府国際カントリークラブ,15,1680528680,1680528680,jp,138.694077,35.599201
935,小淵沢カントリークラブ,15,1680528680,1680528680,jp,138.326645,35.895557
928,境川カントリー倶楽部,15,1680528680,1680528680,jp,138.631989,35.589607
917,サンメンバーズカントリークラブ,15,1680528680,1680528680,jp,139.031021,35.627182
936,昇仙峡カントリークラブ,15,1680528680,1680528680,jp,138.513794,35.715546
940,中央都留カントリー倶楽部,15,1680528680,1680528680,jp,138.839966,35.565659
949,富士川カントリークラブ,15,1680528680,1680528680,jp,138.442825,35.489548
948,富士桜カントリー倶楽部,15,1680528680,1680528680,jp,138.744141,35.464031
945,富士レイクサイドカントリー倶楽部,15,1680528680,1680528680,jp,138.738098,35.452374
946,富士ロイヤルカントリークラブ,15,1680528680,1680528680,jp,138.504929,35.204254
941,都ゴルフ倶楽部,15,1680528680,1680528680,jp,138.959061,35.538452
921,メイプルポイントゴルフクラブ,15,1680528680,1680528680,jp,139.115417,35.606018
923,レイク相模カントリークラブ,15,1680528680,1680528680,jp,139.108612,35.63028
1502,あづみ野カントリークラブ,16,1680528680,1680528680,jp,137.822159,36.31741
1503,あららぎカントリークラブ,16,1680528680,1680528680,jp,137.683609,35.384102
2346,ウィーゴカントリー倶楽部,16,1680528680,1680528680,jp,138.069763,36.552933
1540,上田菅平高原グランヴィリオゴルフ倶楽部,16,1680528680,1680528680,jp,138.330826,36.523525
1512,塩嶺カントリークラブ,16,1680528680,1680528680,jp,137.982834,36.064384
1519,軽井沢ゴルフ倶楽部,16,1680528680,1680528680,jp,138.596954,36.348331
1567,木曽駒高原カントリークラブ,16,1680528680,1680528680,jp,137.767944,35.866169
1509,サニーカントリークラブ,16,1680528680,1680528680,jp,138.305923,36.190067
1535,信濃ゴルフ倶楽部,16,1680528680,1680528680,jp,138.16626,36.767918
1533,信州伊那国際ゴルフクラブ,16,1680528680,1680528680,jp,137.904526,35.882446
1538,諏訪湖カントリークラブ,16,1680528680,1680528680,jp,138.144867,36.036098
1537,諏訪レイクヒルカントリークラブ,16,1680528680,1680528680,jp,138.032745,36.02219
1523,高森カントリークラブ,16,1680528680,1680528680,jp,137.864624,35.595242
1572,蓼科高原カントリークラブ,16,1680528680,1680528680,jp,138.25116,36.052063
1571,立科ゴルフ倶楽部,16,1680528680,1680528680,jp,138.326813,36.261871
1546,大浅間ゴルフクラブ,16,1680528680,1680528680,jp,138.492004,36.367149
1542,千曲高原カントリークラブ,16,1680528680,1680528680,jp,138.102768,36.517166
1547,中央道晴ヶ峰カントリー倶楽部,16,1680528680,1680528680,jp,138.112,35.932476
1563,豊科カントリー倶楽部,16,1680528680,1680528680,jp,137.951385,36.293575
1549,長野カントリークラブ,16,1680528680,1680528680,jp,138.133209,36.693375
1550,長野京急カントリークラブ,16,1680528680,1680528680,jp,138.16954,36.727123
1551,長野国際カントリークラブ,16,1680528680,1680528680,jp,138.240219,36.735901
1561,平谷カントリー倶楽部,16,1680528680,1680528680,jp,137.63028,35.323334
1510,フォレストカントリークラブ三井の森,16,1680528680,1680528680,jp,138.295898,36.008595
1560,富士見高原ゴルフコース,16,1680528680,1680528680,jp,138.306259,35.917763
1562,穂高カントリークラブ,16,1680528680,1680528680,jp,137.829239,36.315502
1532,松本浅間カントリークラブ,16,1680528680,1680528680,jp,138.003006,36.280163
1531,松本カントリークラブ,16,1680528680,1680528680,jp,138.013016,36.162052
1525,三井の森蓼科ゴルフ倶楽部,16,1680528680,1680528680,jp,138.295898,36.008595
1553,南長野ゴルフ倶楽部,16,1680528680,1680528680,jp,138.025497,36.510906
1565,望月東急ゴルフクラブ,16,1680528680,1680528680,jp,138.305923,36.190067
1048,阿賀高原ゴルフ倶楽部,17,1680528680,1680528680,jp,139.335846,37.757153
1040,イーストヒルゴルフクラブ,17,1680528680,1680528680,jp,139.266373,37.775398
1065,石地シーサイドカントリークラブ,17,1680528680,1680528680,jp,138.654541,37.494556
1054,糸魚川カントリークラブ,17,1680528680,1680528680,jp,137.873383,37.018528
1049,越後ゴルフ倶楽部,17,1680528680,1680528680,jp,138.94899,37.273972
1056,小千谷カントリークラブ,17,1680528680,1680528680,jp,138.757019,37.333736
1076,柏崎カントリークラブ,17,1680528680,1680528680,jp,138.621658,37.45723
1044,櫛形ゴルフ倶楽部,17,1680528680,1680528680,jp,139.40657,38.035732
2338,グリーンヒル長岡ゴルフ倶楽部,17,1680528680,1680528680,jp,138.865479,37.405148
1072,ゴールド越後湯沢カントリークラブ,17,1680528680,1680528680,jp,138.866882,36.887478
1053,笹神五頭ゴルフ倶楽部,17,1680528680,1680528680,jp,139.272003,37.818298
1055,紫雲ゴルフ倶楽部,17,1680528680,1680528680,jp,139.298477,38.015373
1051,下田城カントリー倶楽部,17,1680528680,1680528680,jp,139.054794,37.537464
1067,胎内高原ゴルフ倶楽部,17,1680528680,1680528680,jp,139.496033,38.031841
1058,十日町カントリークラブ,17,1680528680,1680528680,jp,138.749893,37.085354
1068,中条ゴルフ倶楽部,17,1680528680,1680528680,jp,139.320465,38.050072
1069,中峰ゴルフ倶楽部,17,1680528680,1680528680,jp,139.265594,37.8927
1070,長岡カントリー倶楽部,17,1680528680,1680528680,jp,138.755997,37.414272
1059,新潟ゴルフ倶楽部,17,1680528680,1680528680,jp,138.844177,37.760044
1060,新潟サンライズゴルフコース,17,1680528680,1680528680,jp,139.238358,37.982277
1063,新津カントリークラブ,17,1680528680,1680528680,jp,139.132431,37.777824
1075,日本海カントリークラブ,17,1680528680,1680528680,jp,139.386551,38.117424
2408,ノーブルウッドゴルフクラブ,17,1680528680,1680528680,jp,139.315506,38.029465
1043,フォレストカントリー倶楽部,17,1680528680,1680528680,jp,139.303757,37.895451
1057,松ヶ峯カントリー倶楽部,17,1680528680,1680528680,jp,138.210327,36.967049
1080,妙高カントリークラブ,17,1680528680,1680528680,jp,138.186798,36.915085
2302,妙高高原ゴルフ倶楽部,17,1680528680,1680528680,jp,138.185425,36.869568
1081,妙高サンシャインゴルフ倶楽部,17,1680528680,1680528680,jp,138.211273,36.950043
1073,湯田上カントリークラブ,17,1680528680,1680528680,jp,139.093781,37.723305
1045,ヨネックスカントリークラブ,17,1680528680,1680528680,jp,138.747955,37.596622
1047,米山水源カントリークラブ,17,1680528680,1680528680,jp,138.362732,37.235298
1805,魚津国際カントリークラブ,18,1680528680,1680528680,jp,137.471817,36.821404
1811,大山カメリアカントリークラブ,18,1680528680,1680528680,jp,137.255447,36.586872
1806,呉羽カントリークラブ,18,1680528680,1680528680,jp,137.111557,36.661102
1808,小杉カントリークラブ,18,1680528680,1680528680,jp,137.087173,36.676453
1809,千羽平ゴルフクラブ,18,1680528680,1680528680,jp,136.885376,36.618572
1810,太閤山カントリークラブ,18,1680528680,1680528680,jp,137.09726,36.68335
1807,高岡カントリー倶楽部,18,1680528680,1680528680,jp,137.019073,36.676559
1816,立山カントリークラブ,18,1680528680,1680528680,jp,137.344177,36.618366
1802,トナミロイヤルゴルフ倶楽部,18,1680528680,1680528680,jp,136.924927,36.538849
1815,富山カントリークラブ,18,1680528680,1680528680,jp,137.233643,36.599571
1803,花尾カントリークラブ,18,1680528680,1680528680,jp,136.902176,36.744858
1814,氷見カントリークラブ,18,1680528680,1680528680,jp,136.99617,36.91346
1813,八尾カントリークラブ,18,1680528680,1680528680,jp,137.165329,36.586964
1255,石川ゴルフ倶楽部,19,1680528680,1680528680,jp,136.754547,36.646263
1245,加賀カントリークラブ,19,1680528680,1680528680,jp,136.334015,36.263973
1246,加賀セントラルゴルフ倶楽部,19,1680528680,1680528680,jp,136.304657,36.283501
1248,金沢カントリー倶楽部,19,1680528680,1680528680,jp,136.738083,36.721481
1249,金沢ゴルフクラブ,19,1680528680,1680528680,jp,136.727844,36.517815
1254,小松カントリークラブ,19,1680528680,1680528680,jp,136.454285,36.357727
1242,小松パブリック,19,1680528680,1680528680,jp,136.45047,36.291649
1243,ゴルフ倶楽部金沢リンクス,19,1680528680,1680528680,jp,136.656494,36.56105
1253,朱鷺の台カントリークラブ,19,1680528680,1680528680,jp,136.784103,36.925156
1247,那谷寺カントリー倶楽部,19,1680528680,1680528680,jp,136.41806,36.313881
1257,能登カントリークラブ,19,1680528680,1680528680,jp,136.747208,36.815617
1259,能登島ゴルフアンドカントリークラブ,19,1680528680,1680528680,jp,136.945862,37.114086
1265,和倉ゴルフ倶楽部,19,1680528680,1680528680,jp,136.915833,37.056973
1821,芦原ゴルフクラブ,20,1680528680,1680528680,jp,136.242477,36.284855
1822,越前カントリークラブ,20,1680528680,1680528680,jp,136.275497,36.26321
1826,越前武生カントリークラブ,20,1680528680,1680528680,jp,136.085754,35.880871
1824,ゴールド福井カントリークラブ,20,1680528680,1680528680,jp,136.134964,36.036983
2410,杉ノ木台ゴルフクラブ,20,1680528680,1680528680,jp,136.18544,35.993454
1825,敦賀国際ゴルフ倶楽部,20,1680528680,1680528680,jp,136.062897,35.60828
1818,フォーレスト福井ゴルフクラブ,20,1680528680,1680528680,jp,136.129623,36.122383
1819,フクイカントリークラブ,20,1680528680,1680528680,jp,136.30011,36.126347
1827,福井国際カントリークラブ,20,1680528680,1680528680,jp,136.24942,36.236877
1820,わかさカントリー倶楽部,20,1680528680,1680528680,jp,135.899719,35.448917
313,愛岐カントリークラブ,21,1680528680,1680528680,jp,137.087341,35.385403
370,明世カントリークラブ,21,1680528680,1680528680,jp,137.226227,35.388283
290,いわむらカントリークラブ,21,1680528680,1680528680,jp,137.422485,35.391758
330,恵那峡カントリークラブ,21,1680528680,1680528680,jp,137.378677,35.439007
344,大垣カントリー倶楽部,21,1680528680,1680528680,jp,136.546997,35.512924
317,各務原カントリー倶楽部,21,1680528680,1680528680,jp,136.90834,35.438007
322,岐阜稲口ゴルフ倶楽部,21,1680528680,1680528680,jp,136.915817,35.464081
319,岐阜カンツリー倶楽部,21,1680528680,1680528680,jp,136.868454,35.432098
327,岐阜北カントリー倶楽部,21,1680528680,1680528680,jp,136.688889,35.525578
324,岐阜国際カントリー倶楽部,21,1680528680,1680528680,jp,136.756393,35.528034
323,岐阜関カントリー倶楽部,21,1680528680,1680528680,jp,136.877335,35.467384
321,岐阜セントフィールドカントリー倶楽部,21,1680528680,1680528680,jp,136.978745,35.53289
292,ぎふ美濃ゴルフ倶楽部,21,1680528680,1680528680,jp,136.891281,35.541119
328,岐阜本巣カントリークラブ,21,1680528680,1680528680,jp,136.670242,35.560825
293,クラウンカントリークラブ,21,1680528680,1680528680,jp,137.319946,35.327705
294,グリーンヒル関ゴルフ倶楽部,21,1680528680,1680528680,jp,136.93132,35.460461
295,グリーンヒル瑞浪ゴルフ倶楽部,21,1680528680,1680528680,jp,137.274414,35.327961
298,さくらカントリークラブ,21,1680528680,1680528680,jp,137.091492,35.48185
332,笹平カントリー倶楽部,21,1680528680,1680528680,jp,137.324768,35.347294
342,荘川高原カントリー倶楽部,21,1680528680,1680528680,jp,136.941284,36.067009
337,新陽カントリー倶楽部,21,1680528680,1680528680,jp,137.230774,35.284313
302,スプリングフィールドゴルフクラブ,21,1680528680,1680528680,jp,137.12941,35.359894
338,瑞陵ゴルフ倶楽部,21,1680528680,1680528680,jp,137.310547,35.377235
343,多治見カントリークラブ,21,1680528680,1680528680,jp,137.120621,35.35733
320,谷汲カントリークラブ,21,1680528680,1680528680,jp,136.632767,35.521255
346,中部国際ゴルフクラブ,21,1680528680,1680528680,jp,137.120361,35.388523
329,デイリー郡上カントリー倶楽部,21,1680528680,1680528680,jp,136.930756,35.968803
303,デイリー瑞浪カントリー倶楽部,21,1680528680,1680528680,jp,137.297821,35.411621
358,TOSHIN Golf Club Central Course,21,1680528680,1680528680,jp,136.952911,35.503738
348,東濃カントリー倶楽部,21,1680528680,1680528680,jp,137.301117,35.318916
345,中仙道ゴルフ倶楽部,21,1680528680,1680528680,jp,137.303604,35.442566
347,長良川カントリー倶楽部,21,1680528680,1680528680,jp,136.796844,35.447567
350,日本ラインゴルフ倶楽部,21,1680528680,1680528680,jp,137.028397,35.394737
2300,ニューキャピタルゴルフ倶楽部,21,1680528680,1680528680,jp,137.385696,35.378517
316,花の木ゴルフクラブ,21,1680528680,1680528680,jp,137.207932,35.432323
353,飛騨高山カントリークラブ,21,1680528680,1680528680,jp,137.251343,36.102753
349,日吉ハイランド倶楽部,21,1680528680,1680528680,jp,137.215363,35.460014
339,フォレストみずなみカントリークラブ,21,1680528680,1680528680,jp,137.308578,35.406696
368,法仙坊ゴルフ倶楽部,21,1680528680,1680528680,jp,137.012955,35.488544
340,瑞浪高原ゴルフ倶楽部,21,1680528680,1680528680,jp,137.297272,35.375591
306,美濃関カントリークラブ,21,1680528680,1680528680,jp,136.942337,35.50251
309,むらさき野カントリークラブ,21,1680528680,1680528680,jp,137.18486,35.519463
333,山岡カントリークラブ,21,1680528680,1680528680,jp,137.356003,35.353424
372,養老カントリークラブ,21,1680528680,1680528680,jp,136.448288,35.252594
311,レイクグリーンゴルフ倶楽部,21,1680528680,1680528680,jp,137.17247,35.410141
374,鷲ヶ岳高原ゴルフ倶楽部,21,1680528680,1680528680,jp,136.878372,35.965897
1207,朝霧ジャンボリーゴルフクラブ,22,1680528680,1680528680,jp,138.568192,35.346268
1199,足柄森林カントリー倶楽部,22,1680528680,1680528680,jp,138.972763,35.309982
1165,愛鷹シックスハンドレッドクラブ,22,1680528680,1680528680,jp,138.828629,35.170956
1166,芦の湖カントリークラブ,22,1680528680,1680528680,jp,138.924423,35.110382
1174,伊豆大仁カントリークラブ,22,1680528680,1680528680,jp,139.028168,35.032162
1173,伊豆国際カントリークラブ,22,1680528680,1680528680,jp,138.890915,34.976521
1172,伊豆下田カントリークラブ,22,1680528680,1680528680,jp,138.804886,34.640892
1171,伊豆にらやまカントリークラブ,22,1680528680,1680528680,jp,139.003799,35.046143
1167,伊東カントリークラブ,22,1680528680,1680528680,jp,139.075607,34.926804
1186,小田急西富士ゴルフ倶楽部,22,1680528680,1680528680,jp,138.582413,35.329979
1178,葛城ゴルフ倶楽部,22,1680528680,1680528680,jp,137.933441,34.804104
1240,凾南ゴルフ倶楽部,22,1680528680,1680528680,jp,139.01152,35.145588
2424,グランディ浜名湖ゴルフクラブ,22,1680528680,1680528680,jp,137.59465,34.734631
1154,グランフィールズカントリークラブ,22,1680528680,1680528680,jp,138.990234,35.180424
1180,御殿場ゴルフ倶楽部,22,1680528680,1680528680,jp,138.94429,35.254848
1157,サザンクロスカントリークラブ,22,1680528680,1680528680,jp,139.12233,34.938076
1184,修善寺カントリークラブ,22,1680528680,1680528680,jp,138.959839,34.955406
1185,十里木カントリークラブ,22,1680528680,1680528680,jp,138.765839,35.233612
1191,裾野カンツリー倶楽部,22,1680528680,1680528680,jp,138.877304,35.223083
1204,大富士ゴルフ場,22,1680528680,1680528680,jp,138.719833,35.206818
1211,東名カントリークラブ,22,1680528680,1680528680,jp,138.882294,35.185074
1205,中伊豆グリーンクラブ,22,1680528680,1680528680,jp,139.019684,34.937424
1188,沼津ゴルフクラブ,22,1680528680,1680528680,jp,138.854446,35.147038
1223,浜名湖カントリークラブ,22,1680528680,1680528680,jp,137.525635,34.684681
1221,浜松カントリークラブ,22,1680528680,1680528680,jp,137.803741,34.866894
1222,浜松シーサイドゴルフクラブ,22,1680528680,1680528680,jp,137.850082,34.660015
1210,東富士カントリークラブ,22,1680528680,1680528680,jp,138.922363,35.372059
1224,富士エースゴルフ倶楽部,22,1680528680,1680528680,jp,138.847809,35.186417
1225,富士カントリークラブ,22,1680528680,1680528680,jp,138.963989,35.295738
1227,富士グリーンヒルゴルフコース,22,1680528680,1680528680,jp,138.955048,35.377853
1228,富士チサンカントリークラブ,22,1680528680,1680528680,jp,138.580933,35.231693
1230,富士宮ゴルフクラブ,22,1680528680,1680528680,jp,138.601044,35.211525
1216,富士箱根カントリークラブ,22,1680528680,1680528680,jp,139.007812,35.07069
1236,富士平原ゴルフクラブ,22,1680528680,1680528680,jp,138.888519,35.342899
1229,富士ヘルスカントリークラブ,22,1680528680,1680528680,jp,138.955048,35.377853
1231,富士見ヶ丘カントリー倶楽部,22,1680528680,1680528680,jp,138.509811,35.170551
1161,ミオス菊川カントリークラブ,22,1680528680,1680528680,jp,138.041107,34.724201
1182,三島カントリークラブ,22,1680528680,1680528680,jp,138.923172,35.154617
1217,南富士カントリークラブ,22,1680528680,1680528680,jp,138.738785,35.243507
1163,リバー富士カントリークラブ,22,1680528680,1680528680,jp,138.383057,34.976944
1164,レイク浜松カントリークラブ,22,1680528680,1680528680,jp,137.667099,34.890331
11,愛知カンツリー倶楽部,23,1680528680,1680528680,jp,137.007355,35.145657
14,伊良湖シーサイドゴルフ倶楽部,23,1680528680,1680528680,jp,137.05571,34.645275
29,ウッドフレンズ森林公園ゴルフ場,23,1680528680,1680528680,jp,137.030914,35.228745
16,岡崎カントリー倶楽部,23,1680528680,1680528680,jp,137.243652,34.926296
25,小原カントリークラブ,23,1680528680,1680528680,jp,137.310028,35.277283
24,春日井カントリークラブ,23,1680528680,1680528680,jp,137.034042,35.328136
17,加茂ゴルフ倶楽部,23,1680528680,1680528680,jp,137.363495,35.066727
2,キャッスルヒルカントリークラブ,23,1680528680,1680528680,jp,137.397675,34.867802
20,京和カントリー倶楽部,23,1680528680,1680528680,jp,137.290756,35.158298
22,笹戸カントリークラブ,23,1680528680,1680528680,jp,137.341248,35.207798
3,さなげカントリークラブ,23,1680528680,1680528680,jp,137.119522,35.130486
4,サン・ベルグラビアカントリー倶楽部,23,1680528680,1680528680,jp,137.302841,34.887794
2414,ザ・トラディションゴルフクラブ,23,1680528680,1680528680,jp,137.256805,34.985092
41,品野台カントリークラブ,23,1680528680,1680528680,jp,137.13533,35.258804
28,新城カントリー倶楽部,23,1680528680,1680528680,jp,137.487152,34.869888
34,定光寺カントリークラブ,23,1680528680,1680528680,jp,137.097046,35.280586
5,セントクリークゴルフクラブ,23,1680528680,1680528680,jp,137.279007,35.182858
31,知多カントリー倶楽部,23,1680528680,1680528680,jp,136.886734,34.828533
33,貞宝カントリークラブ,23,1680528680,1680528680,jp,137.130417,35.106937
43,豊田カントリー倶楽部,23,1680528680,1680528680,jp,137.210892,35.095535
49,名倉カントリークラブ,23,1680528680,1680528680,jp,137.550827,35.144333
46,名古屋グリーンカントリークラブ,23,1680528680,1680528680,jp,137.230621,35.179501
48,名古屋広幡ゴルフコース,23,1680528680,1680528680,jp,137.133774,35.168972
50,鳴海カントリークラブ,23,1680528680,1680528680,jp,136.999359,35.082153
30,西尾ゴルフクラブ,23,1680528680,1680528680,jp,137.048645,34.812828
18,額田ゴルフ倶楽部,23,1680528680,1680528680,jp,137.308533,34.968258
40,半田ゴルフリンクス,23,1680528680,1680528680,jp,136.927765,34.867527
27,パインズゴルフクラブ,23,1680528680,1680528680,jp,137.31041,35.244511
36,東名古屋カントリークラブ,23,1680528680,1680528680,jp,137.128799,35.163929
42,平尾カントリークラブ,23,1680528680,1680528680,jp,137.346741,34.868732
9,みとゴルフ倶楽部,23,1680528680,1680528680,jp,137.284378,34.836811
51,緑ヶ丘カンツリークラブ,23,1680528680,1680528680,jp,136.993896,35.220985
23,三好カントリー倶楽部,23,1680528680,1680528680,jp,137.097321,35.143021
834,青山高原カントリークラブ,24,1680528680,1680528680,jp,136.404327,34.701614
798,阿山カンツリー倶楽部,24,1680528680,1680528680,jp,136.177307,34.811531
791,アリジカントリークラブ,24,1680528680,1680528680,jp,136.0858,34.691422
809,伊勢カントリークラブ,24,1680528680,1680528680,jp,136.617966,34.516308
821,近鉄賢島カンツリークラブ,24,1680528680,1680528680,jp,136.80658,34.321758
818,桑名カントリー倶楽部,24,1680528680,1680528680,jp,136.626907,35.093548
788,グリーンハイランドカントリー倶楽部,24,1680528680,1680528680,jp,136.086365,34.653111
2297,グレイスヒルズカントリー倶楽部,24,1680528680,1680528680,jp,136.506241,34.987961
847,榊原温泉ゴルフ倶楽部,24,1680528680,1680528680,jp,136.355804,34.706676
824,榊原ゴルフ倶楽部,24,1680528680,1680528680,jp,136.384201,34.672649
841,島ヶ原カントリークラブ,24,1680528680,1680528680,jp,136.054337,34.770733
794,スリーレイクスカントリークラブ,24,1680528680,1680528680,jp,136.569366,35.115593
796,タートルエースゴルフ倶楽部,24,1680528680,1680528680,jp,136.423004,34.847351
837,中日カントリークラブ,24,1680528680,1680528680,jp,136.465195,34.913605
839,津カントリー倶楽部,24,1680528680,1680528680,jp,136.428268,34.721428
840,TOSHIN Princeville Golf Course,24,1680528680,1680528680,jp,136.384705,34.73214
836,東建多度カントリークラブ・名古屋,24,1680528680,1680528680,jp,136.599655,35.14399
799,ナガシマカントリークラブ,24,1680528680,1680528680,jp,136.563889,35.148834
853,名張カントリークラブ,24,1680528680,1680528680,jp,136.140701,34.636883
789,名張サウスカントリー倶楽部,24,1680528680,1680528680,jp,136.160217,34.589924
833,西日本セブンスリーゴルフクラブ,24,1680528680,1680528680,jp,136.432022,34.628143
820,フォレスト芸濃ゴルフクラブ,24,1680528680,1680528680,jp,136.427048,34.832397
842,藤原ゴルフクラブ,24,1680528680,1680528680,jp,136.498642,35.201321
832,松阪カントリークラブ,24,1680528680,1680528680,jp,136.547867,34.532993
825,三重カンツリークラブ,24,1680528680,1680528680,jp,136.482208,35.023438
827,三鈴カントリー倶楽部,24,1680528680,1680528680,jp,136.422852,34.963032
852,名松・ゴルフクラブ,24,1680528680,1680528680,jp,136.373367,34.607075
850,名阪ロイヤルゴルフクラブ,24,1680528680,1680528680,jp,136.181091,34.79805
851,名四カントリークラブ,24,1680528680,1680528680,jp,136.590439,35.010246
803,メナードカントリークラブ青山コース,24,1680528680,1680528680,jp,136.229797,34.607033
828,四日市カンツリー倶楽部,24,1680528680,1680528680,jp,136.58432,35.026699
829,四日市の里ゴルフクラブ,24,1680528680,1680528680,jp,136.545975,34.965576
804,ライオンズゴルフ倶楽部,24,1680528680,1680528680,jp,136.43956,34.903835
805,リオフジワラカントリークラブ,24,1680528680,1680528680,jp,136.445129,35.213722
854,涼仙ゴルフ倶楽部,24,1680528680,1680528680,jp,136.583984,35.117352
857,鈴峰ゴルフ倶楽部,24,1680528680,1680528680,jp,136.475067,34.926853
806,ローモンドカントリー倶楽部,24,1680528680,1680528680,jp,136.43956,34.903835
858,六石ゴルフ倶楽部,24,1680528680,1680528680,jp,136.533386,35.14711
982,朝日野カントリー倶楽部,25,1680528680,1680528680,jp,136.176132,35.0243
969,皇子山カントリークラブ,25,1680528680,1680528680,jp,135.84256,35.02203
966,近江カントリー倶楽部,25,1680528680,1680528680,jp,136.072586,35.038097
955,オレンジシガカントリークラブ,25,1680528680,1680528680,jp,136.090668,34.941658
963,蒲生ゴルフ倶楽部,25,1680528680,1680528680,jp,136.19838,35.008839
964,朽木ゴルフ倶楽部,25,1680528680,1680528680,jp,135.933533,35.349087
965,京阪カントリー倶楽部,25,1680528680,1680528680,jp,135.898315,34.88279
968,甲賀カントリー倶楽部,25,1680528680,1680528680,jp,136.109222,34.961693
956,コムウッドゴルフクラブ,25,1680528680,1680528680,jp,136.260284,34.916256
957,ザ・カントリークラブ,25,1680528680,1680528680,jp,136.0439,34.899998
971,滋賀カントリー倶楽部,25,1680528680,1680528680,jp,135.992249,34.85675
973,滋賀甲南カントリークラブ,25,1680528680,1680528680,jp,136.193512,34.916077
972,滋賀ゴルフ倶楽部,25,1680528680,1680528680,jp,136.196609,34.941933
959,センチュリー・シガ・ゴルフクラブ,25,1680528680,1680528680,jp,136.185181,34.902447
960,タラオカントリークラブ,25,1680528680,1680528680,jp,136.060928,34.817135
954,ダイヤモンド滋賀カントリークラブ,25,1680528680,1680528680,jp,136.332123,34.932457
961,デイリー信楽カントリー倶楽部,25,1680528680,1680528680,jp,136.060928,34.817135
987,彦根カントリー倶楽部,25,1680528680,1680528680,jp,136.287521,35.280972
984,比良ゴルフ倶楽部,25,1680528680,1680528680,jp,135.918396,35.150803
985,琵琶湖カントリー倶楽部,25,1680528680,1680528680,jp,136.030167,35.005871
986,琵琶湖レークサイドゴルフコース,25,1680528680,1680528680,jp,135.94281,35.097328
2330,ベアズパウジャパンカントリークラブ,25,1680528680,1680528680,jp,136.16835,35.014862
990,名神八日市カントリークラブ,25,1680528680,1680528680,jp,136.208374,35.075588
989,名神栗東カントリー倶楽部,25,1680528680,1680528680,jp,136.238876,34.956387
991,名神竜王カントリー倶楽部,25,1680528680,1680528680,jp,136.164581,35.030003
962,メイプルヒルズゴルフ倶楽部,25,1680528680,1680528680,jp,136.013626,34.906811
450,宇治カントリークラブ,26,1680528680,1680528680,jp,135.814377,34.918915
451,宇治田原カントリー倶楽部,26,1680528680,1680528680,jp,135.922272,34.86319
2342,かさぎゴルフ倶楽部,26,1680528680,1680528680,jp,135.939606,34.753899
455,亀岡カントリークラブ,26,1680528680,1680528680,jp,135.561371,34.981937
454,関西カントリークラブ,26,1680528680,1680528680,jp,135.510605,34.954453
463,京都大原パブリックコース,26,1680528680,1680528680,jp,135.842041,35.136116
464,協和ゴルフクラブ,26,1680528680,1680528680,jp,135.964218,34.83123
457,久美浜カンツリークラブ,26,1680528680,1680528680,jp,134.88295,35.637043
445,クラウンヒルズ京都ゴルフ倶楽部,26,1680528680,1680528680,jp,135.487335,35.173378
468,太閤坦カントリークラブ,26,1680528680,1680528680,jp,135.444824,35.160126
470,田辺カントリー倶楽部,26,1680528680,1680528680,jp,135.747375,34.821884
465,月ヶ瀬カントリークラブ,26,1680528680,1680528680,jp,136.023972,34.733425
472,日清都カントリークラブ,26,1680528680,1680528680,jp,135.826767,34.914749
471,東城陽ゴルフ倶楽部,26,1680528680,1680528680,jp,135.796814,34.861382
476,福知山カントリー倶楽部,26,1680528680,1680528680,jp,135.047455,35.288315
415,舞鶴カントリークラブ,26,1680528680,1680528680,jp,135.441376,35.531761
467,瑞穂ゴルフ倶楽部,26,1680528680,1680528680,jp,135.369888,35.164558
458,宮津カントリークラブ,26,1680528680,1680528680,jp,135.207886,35.628521
447,るり溪ゴルフクラブ,26,1680528680,1680528680,jp,135.404556,35.042004
448,レイクフォレストリゾート,26,1680528680,1680528680,jp,135.987381,34.754051
459,れいせんゴルフ倶楽部,26,1680528680,1680528680,jp,135.513794,34.990379
1445,天野山カントリークラブ,27,1680528680,1680528680,jp,135.519318,34.433376
1444,池田カンツリー倶楽部,27,1680528680,1680528680,jp,135.443405,34.830246
1438,泉ヶ丘カントリークラブ,27,1680528680,1680528680,jp,135.508789,34.452068
1417,泉佐野カントリークラブ,27,1680528680,1680528680,jp,135.348404,34.354748
1422,茨木高原カンツリー倶楽部,27,1680528680,1680528680,jp,135.514313,34.884266
1423,茨木国際ゴルフ倶楽部,27,1680528680,1680528680,jp,135.535339,34.850586
1443,大阪パブリックゴルフ場,27,1680528680,1680528680,jp,135.677948,34.717094
1427,交野カントリー倶楽部,27,1680528680,1680528680,jp,135.711823,34.786171
1431,関空クラシックゴルフ倶楽部,27,1680528680,1680528680,jp,135.275848,34.361076
1414,きさいちカントリークラブ,27,1680528680,1680528680,jp,135.693832,34.756779
1425,岸和田カントリー倶楽部,27,1680528680,1680528680,jp,135.443649,34.398148
1416,グロワールゴルフ倶楽部,27,1680528680,1680528680,jp,135.641541,34.458431
1426,京阪ゴルフ倶楽部,27,1680528680,1680528680,jp,135.604507,34.789745
1428,光丘カントリー倶楽部,27,1680528680,1680528680,jp,135.582367,34.517353
1434,ゴルフクラブ四条畷,27,1680528680,1680528680,jp,135.681381,34.741859
1433,堺カントリークラブ,27,1680528680,1680528680,jp,135.524384,34.467358
1435,新大阪ゴルフクラブ,27,1680528680,1680528680,jp,135.644119,34.889153
1437,聖丘カントリー倶楽部,27,1680528680,1680528680,jp,135.589111,34.512039
1439,泉南カンツリークラブ,27,1680528680,1680528680,jp,135.308243,34.370964
1441,太子カントリー倶楽部,27,1680528680,1680528680,jp,135.653275,34.503395
1429,高槻カントリー倶楽部,27,1680528680,1680528680,jp,135.594788,34.950466
1432,阪奈カントリークラブ,27,1680528680,1680528680,jp,135.667282,34.702759
1448,枚方カントリー倶楽部,27,1680528680,1680528680,jp,135.728714,34.822395
1449,枚方国際ゴルフ倶楽部,27,1680528680,1680528680,jp,135.717529,34.805016
1446,伏尾ゴルフ倶楽部,27,1680528680,1680528680,jp,135.435516,34.870567
1419,ベニーカントリー倶楽部,27,1680528680,1680528680,jp,135.650787,34.917774
1418,岬カントリークラブ,27,1680528680,1680528680,jp,135.139755,34.307796
1450,箕面ゴルフ倶楽部,27,1680528680,1680528680,jp,135.443405,34.830246
1420,ワールドカントリーゴルフクラブ,27,1680528680,1680528680,jp,135.650558,34.475891
2052,相生カントリー倶楽部,28,1680528680,1680528680,jp,134.488724,34.825207
2043,青山ゴルフクラブ,28,1680528680,1680528680,jp,134.62793,34.84901
2044,青山台ゴルフ倶楽部,28,1680528680,1680528680,jp,135.183075,34.691257
2084,明石ゴルフ倶楽部,28,1680528680,1680528680,jp,135.042557,34.723412
2047,赤穂カンツリークラブ,28,1680528680,1680528680,jp,134.348175,34.750511
2048,赤穂国際カントリークラブ,28,1680528680,1680528680,jp,134.322083,34.815922
1998,芦屋カンツリー倶楽部,28,1680528680,1680528680,jp,135.286057,34.74892
1993,愛宕原ゴルフ倶楽部,28,1680528680,1680528680,jp,135.392029,34.840679
2086,有馬カンツリー倶楽部,28,1680528680,1680528680,jp,135.173233,34.92667
2088,有馬冨士カンツリークラブ,28,1680528680,1680528680,jp,135.252502,34.908867
1999,粟賀ゴルフ倶楽部,28,1680528680,1680528680,jp,134.772995,35.083054
2060,淡路カントリー倶楽部,28,1680528680,1680528680,jp,134.888535,34.49329
2039,生野高原カントリークラブ,28,1680528680,1680528680,jp,134.752991,35.169243
1966,猪名川国際カントリークラブ,28,1680528680,1680528680,jp,135.364944,34.918781
1941,ABCゴルフ倶楽部,28,1680528680,1680528680,jp,135.102188,34.909992
1946,オータニにしきカントリークラブ,28,1680528680,1680528680,jp,135.183075,34.691257
1947,オータニ広尾カントリークラブ,28,1680528680,1680528680,jp,135.183075,34.691257
2055,大岡ゴルフ倶楽部,28,1680528680,1680528680,jp,134.707642,35.509102
2026,小野ゴルフ倶楽部,28,1680528680,1680528680,jp,134.900406,34.842621
2027,小野東洋ゴルフ倶楽部,28,1680528680,1680528680,jp,134.982788,34.841129
1949,オリムピックゴルフ倶楽部,28,1680528680,1680528680,jp,135.079697,34.84227
2003,加古川ゴルフ倶楽部,28,1680528680,1680528680,jp,134.906509,34.808155
2022,加西インターカントリークラブ,28,1680528680,1680528680,jp,134.872528,34.936977
1963,加西カントリークラブ,28,1680528680,1680528680,jp,134.799194,34.917313
2008,関西軽井沢ゴルフ倶楽部,28,1680528680,1680528680,jp,135.335693,35.003899
2006,関西クラシックゴルフ倶楽部,28,1680528680,1680528680,jp,135.109589,34.849075
2007,関西ゴルフ倶楽部,28,1680528680,1680528680,jp,135.13385,34.895916
2036,神鍋高原カントリークラブ,28,1680528680,1680528680,jp,134.668457,35.515594
2035,北神戸ゴルフ場,28,1680528680,1680528680,jp,135.206696,34.862576
1950,キングスロードゴルフクラブ,28,1680528680,1680528680,jp,135.111954,34.923691
1951,グランドオークプレイヤーズコース,28,1680528680,1680528680,jp,135.091553,34.91317
2066,神戸グランドヒルゴルフクラブ,28,1680528680,1680528680,jp,135.242538,34.830498
2015,神戸三田ゴルフクラブ,28,1680528680,1680528680,jp,135.126892,34.934921
2033,神戸パインウッズゴルフクラブ,28,1680528680,1680528680,jp,135.160568,34.879173
1954,ゴールデンバレーゴルフ倶楽部,28,1680528680,1680528680,jp,135.03624,34.983807
2011,佐用スターリゾートゴルフ倶楽部,28,1680528680,1680528680,jp,134.389557,35.017223
1956,サングレートゴルフ倶楽部,28,1680528680,1680528680,jp,135.296326,34.989597
2013,三田ゴルフクラブ,28,1680528680,1680528680,jp,135.23201,34.90799
2014,三田レークサイドカントリークラブ,28,1680528680,1680528680,jp,135.1129,34.947178
2020,山東カントリークラブ,28,1680528680,1680528680,jp,134.873749,35.304977
1957,サンロイヤルゴルフクラブ,28,1680528680,1680528680,jp,135.034439,34.92226
2070,白鷺ゴルフクラブ,28,1680528680,1680528680,jp,134.791611,34.912235
2030,城山ゴルフ倶楽部,28,1680528680,1680528680,jp,134.85051,34.847359
2031,新宝塚カントリークラブ,28,1680528680,1680528680,jp,135.325119,34.871964
2037,神有カントリー倶楽部,28,1680528680,1680528680,jp,135.213577,34.823952
1958,ジャパンビレッジゴルフ倶楽部,28,1680528680,1680528680,jp,135.183075,34.691257
1960,ストークヒルゴルフクラブ,28,1680528680,1680528680,jp,134.429947,34.920292
2024,洲本ゴルフ倶楽部,28,1680528680,1680528680,jp,134.865356,34.322872
2049,千刈カンツリー倶楽部,28,1680528680,1680528680,jp,135.254669,34.891331
1971,センチュリー三木ゴルフ倶楽部,28,1680528680,1680528680,jp,135.02623,34.846123
1970,センチュリー吉川ゴルフ倶楽部,28,1680528680,1680528680,jp,135.020294,34.836178
1969,ぜんカントリークラブ,28,1680528680,1680528680,jp,135.069122,34.95562
1945,タカガワオーセントゴルフ倶楽部,28,1680528680,1680528680,jp,134.872299,34.953579
2010,高室池ゴルフ倶楽部,28,1680528680,1680528680,jp,135.006058,34.944916
1961,宝塚クラシックゴルフ倶楽部,28,1680528680,1680528680,jp,135.325821,34.839745
1953,宝塚けやきヒルカントリークラブ,28,1680528680,1680528680,jp,135.356491,34.854591
2079,宝塚高原ゴルフクラブ,28,1680528680,1680528680,jp,135.343796,34.841358
2078,宝塚ゴルフ倶楽部,28,1680528680,1680528680,jp,135.341125,34.787846
2038,垂水ゴルフ倶楽部,28,1680528680,1680528680,jp,135.055634,34.650467
2056,大神戸ゴルフ倶楽部,28,1680528680,1680528680,jp,134.981628,34.68325
2057,大宝塚ゴルフクラブ,28,1680528680,1680528680,jp,135.356491,34.854591
1974,ダンロップゴルフコース,28,1680528680,1680528680,jp,135.181931,34.823177
1975,チェリーヒルズゴルフクラブ,28,1680528680,1680528680,jp,135.023041,34.81625
2050,千草カントリークラブ,28,1680528680,1680528680,jp,134.470398,35.125259
2339,つるやカントリークラブ西宮北コース,28,1680528680,1680528680,jp,135.248672,34.827553
2064,東条湖カントリー倶楽部,28,1680528680,1680528680,jp,135.056427,34.927605
2063,東条ゴルフ倶楽部,28,1680528680,1680528680,jp,135.051117,34.882153
2001,東条の森カントリークラブ宇城コース,28,1680528680,1680528680,jp,135.031723,34.870956
1972,東条パインバレーゴルフクラブ,28,1680528680,1680528680,jp,135.040497,34.894234
2085,鳴尾ゴルフ倶楽部,28,1680528680,1680528680,jp,135.395645,34.892147
2034,西神戸ゴルフ場,28,1680528680,1680528680,jp,135.079025,34.722504
2040,西宮カントリー倶楽部,28,1680528680,1680528680,jp,135.322784,34.783802
2041,西宮高原ゴルフ倶楽部,28,1680528680,1680528680,jp,135.279892,34.812805
2042,西脇カントリークラブ,28,1680528680,1680528680,jp,135.018433,35.006718
2067,能勢カントリー倶楽部,28,1680528680,1680528680,jp,135.431625,34.882984
1968,播磨カントリークラブ,28,1680528680,1680528680,jp,134.940353,34.81123
2069,播磨自然高原船坂ゴルフ倶楽部,28,1680528680,1680528680,jp,134.297531,34.851585
2068,播州東洋ゴルフ倶楽部,28,1680528680,1680528680,jp,134.820557,34.911697
1979,パインレークゴルフクラブ,28,1680528680,1680528680,jp,135.03624,34.983807
1980,ひかみカントリークラブ,28,1680528680,1680528680,jp,135.003265,35.152573
2062,東広野ゴルフ倶楽部,28,1680528680,1680528680,jp,135.065002,34.768898
1994,姫路相生カントリークラブ,28,1680528680,1680528680,jp,134.445435,34.855949
2073,姫路シーサイドゴルフコース,28,1680528680,1680528680,jp,134.756149,34.771107
2077,兵庫カンツリー倶楽部,28,1680528680,1680528680,jp,135.143234,34.766308
2093,廣野ゴルフ倶楽部,28,1680528680,1680528680,jp,135.021164,34.770657
1984,ベル・グリーンカントリークラブ,28,1680528680,1680528680,jp,135.183075,34.691257
2080,鳳鳴カントリークラブ,28,1680528680,1680528680,jp,135.183075,34.691257
1985,マスターズゴルフ倶楽部,28,1680528680,1680528680,jp,135.001862,34.831348
2016,三日月カントリークラブ,28,1680528680,1680528680,jp,134.459564,34.992737
2017,三木ゴルフ倶楽部,28,1680528680,1680528680,jp,135.05246,34.820663
2018,三木セブンハンドレッド倶楽部,28,1680528680,1680528680,jp,135.053268,34.806858
2019,三木よかわカントリークラブ,28,1680528680,1680528680,jp,135.083679,34.857315
2071,美奈木ゴルフ倶楽部,28,1680528680,1680528680,jp,135.074509,34.855343
2083,妙見富士カントリークラブ,28,1680528680,1680528680,jp,134.923355,35.050217
2075,武庫ノ台ゴルフコース,28,1680528680,1680528680,jp,135.26828,34.864132
1952,やしろ東条ゴルフクラブ,28,1680528680,1680528680,jp,135.02626,34.900803
2336,湯村カンツリークラブ,28,1680528680,1680528680,jp,134.5029606,35.5080296
2009,吉川カントリー倶楽部,28,1680528680,1680528680,jp,135.128693,34.868755
1981,吉川ロイヤルゴルフクラブ,28,1680528680,1680528680,jp,135.069122,34.95562
1987,よみうりカントリークラブ,28,1680528680,1680528680,jp,135.291214,34.840046
1989,ライオンズカントリー倶楽部,28,1680528680,1680528680,jp,135.14238,34.925983
1990,レークスワンカントリー倶楽部,28,1680528680,1680528680,jp,135.095535,34.943035
2090,六甲カントリー倶楽部,28,1680528680,1680528680,jp,135.265167,34.819221
2091,六甲国際ゴルフ倶楽部,28,1680528680,1680528680,jp,135.103561,34.755283
1782,秋津原ゴルフクラブ,29,1680528680,1680528680,jp,135.733429,34.432793
1776,阿騎野ゴルフ倶楽部,29,1680528680,1680528680,jp,135.940048,34.516201
1797,飛鳥カンツリー倶楽部,29,1680528680,1680528680,jp,135.718262,34.702503
1783,春日台カントリークラブ,29,1680528680,1680528680,jp,135.925812,34.601948
1800,木津川カントリー倶楽部,29,1680528680,1680528680,jp,135.931229,34.73402
1773,シプレカントリークラブ,29,1680528680,1680528680,jp,135.670609,34.354519
1784,新奈良ゴルフ倶楽部,29,1680528680,1680528680,jp,135.892761,34.692429
1785,天理ゴルフ倶楽部,29,1680528680,1680528680,jp,135.897491,34.585327
1774,ディアーパークゴルフクラブ,29,1680528680,1680528680,jp,135.899521,34.672775
1786,奈良カントリークラブ,29,1680528680,1680528680,jp,135.702606,34.355694
1791,奈良国際ゴルフ倶楽部,29,1680528680,1680528680,jp,135.757095,34.683033
1788,奈良の杜ゴルフクラブ,29,1680528680,1680528680,jp,135.914352,34.698193
1793,奈良白鳳カンツリークラブ,29,1680528680,1680528680,jp,136.006851,34.63522
1794,奈良万葉カンツリー倶楽部,29,1680528680,1680528680,jp,135.860779,34.647736
1795,奈良柳生カントリークラブ,29,1680528680,1680528680,jp,135.923416,34.71949
1790,奈良ロイヤルゴルフクラブ,29,1680528680,1680528680,jp,135.766205,34.416183
1792,奈良若草カントリー倶楽部,29,1680528680,1680528680,jp,135.982666,34.654808
1778,花吉野カンツリー倶楽部,29,1680528680,1680528680,jp,135.767685,34.39476
1799,万壽ゴルフクラブ,29,1680528680,1680528680,jp,136.006851,34.63522
1796,八重桜カントリークラブ,29,1680528680,1680528680,jp,135.943939,34.62006
1775,ヤマトカントリークラブ,29,1680528680,1680528680,jp,135.905594,34.631027
2288,有田東急ゴルフクラブ,30,1680528680,1680528680,jp,135.241943,34.098347
2280,小倉カントリー倶楽部,30,1680528680,1680528680,jp,135.297424,34.239918
2270,海南高原カントリークラブ,30,1680528680,1680528680,jp,135.253342,34.107285
2272,紀伊高原ゴルフクラブ,30,1680528680,1680528680,jp,135.52713,34.246964
2275,貴志川ゴルフ倶楽部,30,1680528680,1680528680,jp,135.306961,34.22971
2274,紀南カントリークラブ,30,1680528680,1680528680,jp,135.196533,33.860508
2271,紀の国カントリー倶楽部,30,1680528680,1680528680,jp,135.332382,34.220108
2277,国木原ゴルフ倶楽部,30,1680528680,1680528680,jp,135.344955,34.186447
2268,サンリゾートカントリークラブ,30,1680528680,1680528680,jp,135.340485,34.143673
2285,白浜ゴルフ倶楽部,30,1680528680,1680528680,jp,135.337265,33.664791
2282,南紀白浜ゴルフ倶楽部,30,1680528680,1680528680,jp,135.407715,33.690273
2276,橋本カントリークラブ,30,1680528680,1680528680,jp,135.628632,34.345345
2283,レオグラードゴルフクラブ,30,1680528680,1680528680,jp,135.29158,33.939072
2289,和歌山カントリー倶楽部,30,1680528680,1680528680,jp,135.14003,34.271011
1574,グリーンパーク大山ゴルフ倶楽部,31,1680528680,1680528680,jp,133.3946078,35.3649294
1579,大山アークカントリークラブ,31,1680528680,1680528680,jp,133.43277,35.307713
1580,大山ゴルフクラブ,31,1680528680,1680528680,jp,133.494446,35.381374
1587,米子ゴルフ場,31,1680528680,1680528680,jp,133.322937,35.461521
1593,出雲空港カントリー倶楽部,32,1680528680,1680528680,jp,133.050522,35.472294
1588,いづも大社カントリークラブ,32,1680528680,1680528680,jp,132.657425,35.296101
1591,金城カントリークラブ,32,1680528680,1680528680,jp,132.213791,34.890106
1589,クラシック島根カントリークラブ,32,1680528680,1680528680,jp,132.804489,35.240143
1590,玉造温泉カントリークラブ,32,1680528680,1680528680,jp,132.939163,35.410439
1598,浜田ゴルフリンクス,32,1680528680,1680528680,jp,132.126022,34.925529
231,赤坂カントリークラブ,33,1680528680,1680528680,jp,134.00679,34.849586
232,赤坂レイクサイドカントリークラブ,33,1680528680,1680528680,jp,134.027771,34.802986
205,井原ゴルフ倶楽部,33,1680528680,1680528680,jp,133.515823,34.622906
2311,岡山北ゴルフ倶楽部,33,1680528680,1680528680,jp,133.921616,34.752655
211,岡山金陵カントリークラブ,33,1680528680,1680528680,jp,133.85434,34.772053
212,岡山空港ゴルフコース,33,1680528680,1680528680,jp,133.886505,34.761623
214,岡山国際ゴルフ倶楽部,33,1680528680,1680528680,jp,133.774017,34.712357
215,岡山西ゴルフ倶楽部,33,1680528680,1680528680,jp,133.495438,34.568279
213,岡山御津カントリークラブ,33,1680528680,1680528680,jp,133.980637,34.829758
2363,奥津ゴルフ倶楽部,33,1680528680,1680528680,jp,133.942337,35.216263
234,長船カントリークラブ,33,1680528680,1680528680,jp,134.092224,34.702591
216,笠岡カントリー倶楽部,33,1680528680,1680528680,jp,133.556076,34.568615
217,鬼ノ城ゴルフ倶楽部,33,1680528680,1680528680,jp,133.787308,34.730614
218,吉備カントリークラブ,33,1680528680,1680528680,jp,133.645889,34.653709
219,吉備高原カントリークラブ,33,1680528680,1680528680,jp,133.685623,34.782146
220,久米カントリークラブ,33,1680528680,1680528680,jp,133.960815,34.929237
233,倉敷カントリー倶楽部,33,1680528680,1680528680,jp,133.80011,34.644836
196,グレート岡山ゴルフ倶楽部,33,1680528680,1680528680,jp,133.916183,34.842953
222,後楽ゴルフ倶楽部,33,1680528680,1680528680,jp,133.811691,34.794212
223,作州武蔵カントリー倶楽部,33,1680528680,1680528680,jp,134.202316,35.071293
224,山陽ゴルフ倶楽部,33,1680528680,1680528680,jp,134.03038,34.866688
197,ザ・オークレットゴルフクラブ,33,1680528680,1680528680,jp,134.088287,34.980339
229,瀬戸大橋カントリークラブ,33,1680528680,1680528680,jp,133.894196,34.472408
199,たけべの森ゴルフ倶楽部,33,1680528680,1680528680,jp,133.88681,34.837212
221,玉野ゴルフ倶楽部,33,1680528680,1680528680,jp,133.923233,34.500454
236,東児が丘マリンヒルズゴルフクラブ,33,1680528680,1680528680,jp,134.015793,34.559547
202,パインツリーゴルフクラブ,33,1680528680,1680528680,jp,133.584564,34.81992
227,真庭カンツリークラブ,33,1680528680,1680528680,jp,133.699066,35.051182
2313,水島ゴルフリンクス,33,1680528680,1680528680,jp,133.709259,34.476917
204,ランドマークゴルフ倶楽部,33,1680528680,1680528680,jp,133.739563,34.954243
244,鷲羽ゴルフ倶楽部,33,1680528680,1680528680,jp,133.790985,34.511288
608,安芸カントリークラブ,34,1680528680,1680528680,jp,132.878128,34.442371
635,太田川ゴルフ倶楽部,34,1680528680,1680528680,jp,132.478012,34.44022
642,尾道うずしおカントリークラブ,34,1680528680,1680528680,jp,133.204666,34.493069
644,尾道ゴルフ倶楽部,34,1680528680,1680528680,jp,133.069397,34.537891
609,賀茂カントリークラブ,34,1680528680,1680528680,jp,132.77565,34.446442
613,京覧カントリークラブ,34,1680528680,1680528680,jp,133.034409,34.41151
610,久井カントリークラブ,34,1680528680,1680528680,jp,133.01004,34.506401
617,呉カントリークラブ,34,1680528680,1680528680,jp,132.74855,34.251972
598,グリーンバーズゴルフ倶楽部,34,1680528680,1680528680,jp,132.967636,34.4995
615,芸南カントリークラブ,34,1680528680,1680528680,jp,132.2379,34.403534
614,郷原カントリークラブ,34,1680528680,1680528680,jp,132.616547,34.291424
629,庄原カントリークラブ,34,1680528680,1680528680,jp,133.016479,34.838688
631,新市クラシックゴルフクラブ,34,1680528680,1680528680,jp,133.282776,34.562721
632,瀬野川カンツリー倶楽部,34,1680528680,1680528680,jp,132.562958,34.417679
636,鷹の巣ゴルフクラブ,34,1680528680,1680528680,jp,132.208313,34.368797
601,竹原カントリークラブ,34,1680528680,1680528680,jp,132.928528,34.365902
616,戸山カンツリークラブ,34,1680528680,1680528680,jp,132.363525,34.495541
640,白竜湖カントリークラブ,34,1680528680,1680528680,jp,132.916763,34.500309
639,東広島カントリークラブ,34,1680528680,1680528680,jp,132.685883,34.482262
624,広島安佐ゴルフクラブ,34,1680528680,1680528680,jp,132.468842,34.499535
606,広島紅葉カントリークラブ,34,1680528680,1680528680,jp,132.18573,34.321903
621,広島国際ゴルフ倶楽部,34,1680528680,1680528680,jp,132.7061,34.325672
625,広島東映カントリークラブ,34,1680528680,1680528680,jp,132.670929,34.383118
623,広島西カントリー倶楽部,34,1680528680,1680528680,jp,132.201309,34.302475
646,福山カントリークラブ,34,1680528680,1680528680,jp,133.370712,34.57539
645,富士三次カントリークラブ,34,1680528680,1680528680,jp,132.891052,34.743267
648,本郷カントリー倶楽部,34,1680528680,1680528680,jp,132.949234,34.386009
630,松永カントリークラブ,34,1680528680,1680528680,jp,133.26088,34.477062
626,三原カンツリークラブ,34,1680528680,1680528680,jp,133.017899,34.369267
612,宮島志和カンツリー倶楽部,34,1680528680,1680528680,jp,132.662811,34.461166
641,八千代カントリークラブ,34,1680528680,1680528680,jp,132.595612,34.623627
890,岩国センチュリーゴルフクラブ,35,1680528680,1680528680,jp,132.182037,34.073696
897,山陽国際ゴルフクラブ,35,1680528680,1680528680,jp,131.108978,34.053223
887,下関ゴールデンゴルフクラブ,35,1680528680,1680528680,jp,131.088181,34.092838
888,下関ゴルフ倶楽部,35,1680528680,1680528680,jp,130.901367,34.137444
898,周南カントリー倶楽部,35,1680528680,1680528680,jp,131.965088,34.044304
880,セントラルパークゴルフ倶楽部,35,1680528680,1680528680,jp,131.11438,34.156204
904,朝陽カントリークラブ,35,1680528680,1680528680,jp,131.181808,34.003166
906,徳山カントリークラブ,35,1680528680,1680528680,jp,131.840317,34.137913
907,徳山国際カントリー倶楽部,35,1680528680,1680528680,jp,131.762619,34.113689
903,中須ゴルフ倶楽部,35,1680528680,1680528680,jp,131.916412,34.107216
911,美和ゴルフクラブ,35,1680528680,1680528680,jp,132.093811,34.218582
913,和木ゴルフ倶楽部,35,1680528680,1680528680,jp,132.215622,34.191975
1624,阿南カントリークラブ,36,1680528680,1680528680,jp,134.636108,33.877407
1620,コート・ベール徳島ゴルフクラブ,36,1680528680,1680528680,jp,134.674713,33.958092
1622,タカガワ西徳島ゴルフ倶楽部,36,1680528680,1680528680,jp,134.554703,34.070091
1630,タカガワ東徳島ゴルフ倶楽部,36,1680528680,1680528680,jp,134.382233,34.019749
1632,鳴門カントリークラブ,36,1680528680,1680528680,jp,134.57991,34.237438
1631,眉山カントリークラブ,36,1680528680,1680528680,jp,134.504654,34.054771
655,鮎滝カントリークラブ,37,1680528680,1680528680,jp,134.064407,34.209545
649,エリエールゴルフクラブ,37,1680528680,1680528680,jp,133.770081,34.097092
664,坂出カントリークラブ,37,1680528680,1680528680,jp,133.912689,34.288975
665,讃岐カントリークラブ,37,1680528680,1680528680,jp,134.221893,34.311283
668,サンライズヒルズカントリークラブ,37,1680528680,1680528680,jp,133.94809,34.136021
666,志度カントリークラブ,37,1680528680,1680528680,jp,134.178619,34.315781
658,タカガワ新琴南ゴルフ倶楽部,37,1680528680,1680528680,jp,133.928711,34.14732
654,高松ゴールドカントリー倶楽部,37,1680528680,1680528680,jp,133.985382,34.187836
663,高松パブリックゴルフコース,37,1680528680,1680528680,jp,134.082016,34.341255
670,詫間カントリークラブ,37,1680528680,1680528680,jp,133.682724,34.222073
669,満濃ヒルズカントリークラブ,37,1680528680,1680528680,jp,133.912979,34.188721
656,屋島カントリークラブ,37,1680528680,1680528680,jp,134.145325,34.334812
652,ロイヤル高松カントリークラブ,37,1680528680,1680528680,jp,133.98848,34.227524
61,今治カントリー倶楽部,38,1680528680,1680528680,jp,133.008026,33.971931
58,宇和島カントリー倶楽部,38,1680528680,1680528680,jp,132.578674,33.313049
56,愛媛ゴルフ倶楽部,38,1680528680,1680528680,jp,132.645142,33.575516
52,エリエールゴルフクラブ松山,38,1680528680,1680528680,jp,132.830658,33.925858
70,大洲ゴルフ倶楽部,38,1680528680,1680528680,jp,132.542587,33.472446
60,久万カントリークラブ,38,1680528680,1680528680,jp,132.877563,33.698418
54,高原ゴルフ倶楽部,38,1680528680,1680528680,jp,132.941071,33.671768
53,サンセットヒルズカントリークラブ,38,1680528680,1680528680,jp,132.813263,33.978924
57,タカガワ新伊予ゴルフ倶楽部,38,1680528680,1680528680,jp,133.401108,33.969883
71,滝の宮カントリークラブ,38,1680528680,1680528680,jp,133.268311,33.911839
55,チサンカントリークラブ北条,38,1680528680,1680528680,jp,132.819153,33.996208
68,新居浜カントリー倶楽部,38,1680528680,1680528680,jp,133.35144,33.928574
73,北条カントリー倶楽部,38,1680528680,1680528680,jp,132.820862,33.970795
66,松山国際ゴルフ倶楽部,38,1680528680,1680528680,jp,132.850983,33.77166
64,松山シーサイドカントリークラブ,38,1680528680,1680528680,jp,132.815369,34.018543
65,松山ロイヤルゴルフ倶楽部,38,1680528680,1680528680,jp,132.764969,33.675697
672,グリーンフィールゴルフ倶楽部,39,1680528680,1680528680,jp,133.339935,33.546741
677,高知ゴルフ倶楽部,39,1680528680,1680528680,jp,133.552795,33.599323
673,四万十カントリークラブ,39,1680528680,1680528680,jp,132.972565,32.943291
674,スカイ・ベイゴルフクラブ,39,1680528680,1680528680,jp,133.399872,33.412388
680,土佐カントリークラブ,39,1680528680,1680528680,jp,133.766373,33.524376
682,土佐山田ゴルフ倶楽部,39,1680528680,1680528680,jp,133.701324,33.613892
681,土佐ユートピアカントリークラブ,39,1680528680,1680528680,jp,133.031876,33.042198
676,錦山カントリークラブ,39,1680528680,1680528680,jp,133.379501,33.541725
675,パシフィックゴルフクラブ,39,1680528680,1680528680,jp,133.646271,33.633415
1880,麻生飯塚ゴルフ倶楽部,40,1680528680,1680528680,jp,130.700653,33.593258
1842,伊都ゴルフ倶楽部,40,1680528680,1680528680,jp,130.41806,33.606388
1872,浮羽カントリークラブ,40,1680528680,1680528680,jp,130.75499,33.347404
1858,小郡カンツリー倶楽部,40,1680528680,1680528680,jp,130.542831,33.426651
1857,勝山御所カントリークラブ,40,1680528680,1680528680,jp,130.915207,33.679993
1849,かほゴルフクラブ,40,1680528680,1680528680,jp,130.746231,33.615929
1879,北九州カントリー倶楽部,40,1680528680,1680528680,jp,130.746246,33.665047
1845,久留米カントリークラブ,40,1680528680,1680528680,jp,130.564407,33.262524
1843,芥屋ゴルフ倶楽部,40,1680528680,1680528680,jp,130.195557,33.55722
1850,玄海ゴルフクラブ,40,1680528680,1680528680,jp,130.512238,33.847858
1851,古賀ゴルフ・クラブ,40,1680528680,1680528680,jp,130.463989,33.71611
1862,西戸崎シーサイドカントリークラブ,40,1680528680,1680528680,jp,130.333359,33.659088
1831,ザ・クイーンズヒルゴルフクラブ,40,1680528680,1680528680,jp,130.41806,33.606388
1832,ザ・クラシックゴルフ倶楽部,40,1680528680,1680528680,jp,130.644119,33.772396
1852,志摩シーサイドカンツリークラブ,40,1680528680,1680528680,jp,130.195557,33.55722
1855,周防灘カントリークラブ,40,1680528680,1680528680,jp,131.060196,33.610386
1861,瀬板の森北九州ゴルフコース,40,1680528680,1680528680,jp,130.734222,33.858452
1833,セブンミリオンカントリークラブ,40,1680528680,1680528680,jp,130.379807,33.47842
1834,セントラル福岡ゴルフ倶楽部,40,1680528680,1680528680,jp,130.590668,33.496948
1866,鷹羽ロイヤルカントリークラブ,40,1680528680,1680528680,jp,130.854401,33.598255
1865,大博多カントリー倶楽部,40,1680528680,1680528680,jp,130.526001,33.487385
1864,太宰府ゴルフ倶楽部,40,1680528680,1680528680,jp,130.54332,33.509884
1835,チェリーゴルフクラブ小倉南コース,40,1680528680,1680528680,jp,130.893738,33.680065
1867,筑紫ヶ丘ゴルフクラブ,40,1680528680,1680528680,jp,130.526001,33.487385
1868,筑紫野カントリークラブ,40,1680528680,1680528680,jp,130.590668,33.496948
1836,チサンカントリークラブ遠賀,40,1680528680,1680528680,jp,130.64563,33.823338
1863,西日本カントリークラブ,40,1680528680,1680528680,jp,130.737793,33.71286
1869,二丈カントリークラブ,40,1680528680,1680528680,jp,130.066589,33.497646
1873,福岡カンツリー倶楽部,40,1680528680,1680528680,jp,130.440338,33.683754
1874,福岡フェザントカントリークラブ,40,1680528680,1680528680,jp,130.816956,33.546307
1878,福岡雷山ゴルフ倶楽部,40,1680528680,1680528680,jp,130.41806,33.606388
1876,福岡レイクサイドカントリークラブ,40,1680528680,1680528680,jp,130.659134,33.598183
1838,ミッションバレーゴルフクラブ,40,1680528680,1680528680,jp,130.697021,33.698929
1846,京都カントリー倶楽部,40,1680528680,1680528680,jp,130.978516,33.655479
1881,門司ゴルフ倶楽部,40,1680528680,1680528680,jp,130.95285,33.863518
1882,夜須高原カントリークラブ,40,1680528680,1680528680,jp,130.620087,33.504192
1870,八女上陽ゴルフ倶楽部,40,1680528680,1680528680,jp,130.657715,33.236687
1854,若松ゴルフ倶楽部,40,1680528680,1680528680,jp,130.684906,33.916092
1853,若宮ゴルフクラブ,40,1680528680,1680528680,jp,130.578445,33.706402
700,唐津ゴルフ倶楽部,41,1680528680,1680528680,jp,129.934937,33.41877
688,佐賀カントリー倶楽部,41,1680528680,1680528680,jp,130.47345,33.335938
689,佐賀クラシックゴルフ倶楽部,41,1680528680,1680528680,jp,130.051071,33.267002
691,佐賀ロイヤルゴルフクラブ,41,1680528680,1680528680,jp,130.009918,33.342846
698,天山カントリークラブ,41,1680528680,1680528680,jp,130.095306,33.303703
687,花祭ゴルフ倶楽部,41,1680528680,1680528680,jp,130.151459,33.235771
701,日の隈カンツリークラブ,41,1680528680,1680528680,jp,130.346069,33.335674
690,福岡セヴンヒルズゴルフ倶楽部,41,1680528680,1680528680,jp,130.088699,33.459064
683,フジカントリークラブ,41,1680528680,1680528680,jp,130.22345,33.351128
684,ブリヂストンカンツリー倶楽部,41,1680528680,1680528680,jp,130.483475,33.35918
704,北山カントリー倶楽部,41,1680528680,1680528680,jp,130.286728,33.44651
695,大和不動カントリー倶楽部,41,1680528680,1680528680,jp,130.247009,33.328426
693,若木ゴルフ倶楽部,41,1680528680,1680528680,jp,129.972717,33.256271
1482,愛野カントリー倶楽部,42,1680528680,1680528680,jp,130.162933,32.817947
1497,オーシャンパレスゴルフクラブ,42,1680528680,1680528680,jp,129.800598,32.886246
1486,喜々津カントリー倶楽部,42,1680528680,1680528680,jp,129.972321,32.819454
1491,小長井カントリー倶楽部,42,1680528680,1680528680,jp,130.164551,32.926857
1500,佐世保・平戸カントリークラブ,42,1680528680,1680528680,jp,129.6647178,33.3045978
1490,佐世保国際カントリー倶楽部,42,1680528680,1680528680,jp,129.822708,33.157864
1499,島原カントリー倶楽部,42,1680528680,1680528680,jp,130.331787,32.738842
1476,チサンカントリークラブ森山,42,1680528680,1680528680,jp,130.127731,32.805225
1498,長崎国際ゴルフ倶楽部,42,1680528680,1680528680,jp,130.045334,32.809002
1496,長崎パークカントリークラブ,42,1680528680,1680528680,jp,129.785522,32.98291
1501,野母崎ゴルフクラブ,42,1680528680,1680528680,jp,129.791275,32.59058
1481,ペニンシュラオーナーズゴルフクラブ,42,1680528680,1680528680,jp,129.807037,32.935658
491,阿蘇大津ゴルフクラブ,43,1680528680,1680528680,jp,130.930832,32.880951
486,阿蘇グリーンヒルカントリークラブ,43,1680528680,1680528680,jp,130.951355,32.844563
492,阿蘇東急ゴルフクラブ,43,1680528680,1680528680,jp,131.000519,32.86985
484,あつまるレークカントリークラブ,43,1680528680,1680528680,jp,130.69313,32.669666
508,鹿北ゴルフ倶楽部,43,1680528680,1680528680,jp,130.687286,33.133434
480,菊池カントリークラブ,43,1680528680,1680528680,jp,130.924255,33.012997
495,球磨カントリー倶楽部,43,1680528680,1680528680,jp,130.820541,32.218372
501,熊本空港カントリークラブ,43,1680528680,1680528680,jp,130.836624,32.839294
498,熊本クラウンゴルフ倶楽部,43,1680528680,1680528680,jp,130.898056,32.240276
502,くまもと中央カントリークラブ,43,1680528680,1680528680,jp,130.8348715,32.9266906
503,熊本南カントリークラブ,43,1680528680,1680528680,jp,130.780701,32.676712
478,グランドチャンピオンゴルフクラブ,43,1680528680,1680528680,jp,130.910278,32.800552
506,グリーンランドリゾートゴルフコース,43,1680528680,1680528680,jp,130.464828,32.994541
479,ザ・マスターズ天草コース,43,1680528680,1680528680,jp,130.308258,32.485447
518,不知火カントリークラブ,43,1680528680,1680528680,jp,130.635376,32.65287
505,高遊原カントリークラブ,43,1680528680,1680528680,jp,130.836044,32.821442
496,玉名カントリークラブ,43,1680528680,1680528680,jp,130.571442,32.956367
513,チェリーゴルフ天草コース,43,1680528680,1680528680,jp,130.429138,32.5662
483,チェリーゴルフ人吉コース,43,1680528680,1680528680,jp,130.797256,32.219105
482,チサンカントリークラブ御船,43,1680528680,1680528680,jp,130.806549,32.735264
493,司菊水ゴルフクラブ,43,1680528680,1680528680,jp,130.626648,32.987671
477,司ロイヤルゴルフクラブ,43,1680528680,1680528680,jp,130.57933,32.981632
516,肥後サンバレーカントリークラブ,43,1680528680,1680528680,jp,130.920792,32.85458
515,八代ゴルフ倶楽部,43,1680528680,1680528680,jp,130.561676,32.391415
481,矢部サンバレーカントリークラブ,43,1680528680,1680528680,jp,130.93045,32.750069
1452,天瀬温泉カントリークラブ,44,1680528680,1680528680,jp,131.02034,33.24585
1455,臼杵カントリークラブ,44,1680528680,1680528680,jp,131.735306,33.119938
1463,大分サニーヒルゴルフ倶楽部,44,1680528680,1680528680,jp,131.491425,33.204163
1459,大分竹中カントリークラブ,44,1680528680,1680528680,jp,131.641739,33.135174
1465,大分中央ゴルフクラブ,44,1680528680,1680528680,jp,131.520248,33.182095
1466,大分東急ゴルフクラブ,44,1680528680,1680528680,jp,131.723053,33.175343
1467,大分富士見カントリー倶楽部,44,1680528680,1680528680,jp,131.534882,33.183029
1475,白木ゴルフ倶楽部,44,1680528680,1680528680,jp,131.554642,33.250095
1468,中津カントリークラブ,44,1680528680,1680528680,jp,131.254562,33.552753
1474,別府扇山ゴルフ倶楽部,44,1680528680,1680528680,jp,131.452423,33.303986
1472,別府ゴルフ倶楽部,44,1680528680,1680528680,jp,131.425293,33.39481
1473,別府の森ゴルフ倶楽部,44,1680528680,1680528680,jp,131.464706,33.24881
1458,三重カントリークラブ,44,1680528680,1680528680,jp,131.633118,33.010052
1469,湯布高原ゴルフクラブ,44,1680528680,1680528680,jp,131.332611,33.266659
1454,ローレル日田カントリークラブ,44,1680528680,1680528680,jp,130.965073,33.341129
397,青島ゴルフ倶楽部,45,1680528680,1680528680,jp,131.46228,31.786119
402,ジェイズカントリークラブ日南コース,45,1680528680,1680528680,jp,131.420273,31.907778
377,トム・ワトソンゴルフコース,45,1680528680,1680528680,jp,131.465942,31.954466
378,ハイビスカスゴルフクラブ,45,1680528680,1680528680,jp,131.457336,32.033997
379,フェニックスカントリークラブ,45,1680528680,1680528680,jp,131.473557,31.97781
401,美々津カントリークラブ,45,1680528680,1680528680,jp,131.501831,32.316414
400,都城母智丘カントリークラブ,45,1680528680,1680528680,jp,131.002899,31.762037
384,宮崎大淀カントリークラブ,45,1680528680,1680528680,jp,131.356186,31.923403
388,宮崎カントリークラブ,45,1680528680,1680528680,jp,131.449112,31.864439
393,宮崎国際空港カントリークラブ,45,1680528680,1680528680,jp,131.420273,31.907778
392,宮崎国際ゴルフ倶楽部,45,1680528680,1680528680,jp,131.420273,31.907778
389,宮崎ゴルフ倶楽部,45,1680528680,1680528680,jp,131.363022,32.011185
394,宮崎座論梅ゴルフクラブ,45,1680528680,1680528680,jp,131.443924,32.089134
391,宮崎レイクサイドゴルフ倶楽部,45,1680528680,1680528680,jp,131.352417,31.822521
381,リージェント宮崎カントリークラブ,45,1680528680,1680528680,jp,131.007523,31.802895
382,レインボースポーツランドゴルフクラブ,45,1680528680,1680528680,jp,131.13353,31.818518
999,奄美カントリークラブ,46,1680528680,1680528680,jp,129.519318,28.413351
1016,出水ゴルフクラブ,46,1680528680,1680528680,jp,130.32489,32.085438
1017,大隅カントリークラブ,46,1680528680,1680528680,jp,131.00325,31.58304
1013,鹿児島国際ゴルフ倶楽部,46,1680528680,1680528680,jp,130.6803583,31.7759066
1010,鹿児島ゴルフリゾート,46,1680528680,1680528680,jp,130.453033,31.520029
1012,鹿児島高牧カントリークラブ,46,1680528680,1680528680,jp,130.5393157,31.7618529
1001,蒲生カントリークラブ,46,1680528680,1680528680,jp,130.5686492,31.7903166
1002,喜入カントリークラブ,46,1680528680,1680528680,jp,130.540207,31.363983
1024,霧島ゴルフクラブ,46,1680528680,1680528680,jp,130.799026,31.872252
1004,祁答院ゴルフ倶楽部,46,1680528680,1680528680,jp,130.484589,31.865267
998,コスモリゾート種子島ゴルフクラブ,46,1680528680,1680528680,jp,131.008118,30.577002
1019,島津ゴルフ倶楽部,46,1680528680,1680528680,jp,130.567932,31.682465
1018,知覧カントリークラブ,46,1680528680,1680528680,jp,130.55806,31.560278
1022,南国カンツリークラブ,46,1680528680,1680528680,jp,130.596329,31.638298
1005,溝辺カントリークラブ,46,1680528680,1680528680,jp,130.663254,31.822475
1020,湯の浦カントリー倶楽部,46,1680528680,1680528680,jp,130.397095,31.508163
245,エメラルドコーストゴルフリンクス,47,1680528680,1680528680,jp,125.282898,24.726633
2420,オーシャンキャッスルカントリークラブ,47,1680528680,1680528680,jp,127.790459,26.27611
251,沖縄カントリークラブ,47,1680528680,1680528680,jp,127.749222,26.21666
263,オリオン嵐山ゴルフ倶楽部,47,1680528680,1680528680,jp,127.966164,26.65214
256,守礼カントリークラブ,47,1680528680,1680528680,jp,127.812943,26.177958
259,美らオーチャードゴルフ倶楽部,47,1680528680,1680528680,jp,127.890747,26.497744
261,那覇ゴルフ倶楽部,47,1680528680,1680528680,jp,127.719414,26.125097
250,ベルビーチゴルフクラブ,47,1680528680,1680528680,jp,127.895813,26.63748
264,琉球ゴルフ倶楽部,47,1680528680,1680528680,jp,127.779831,26.147779
